ID,STATE_CODE,CITY,LAT,LONG,POP
4046255,AL,Bay Minette,30.88296,-87.77305,9118
4046274,TX,Edna,28.97859,-96.64609,5792
4046319,AL,Bayou La Batre,30.40352,-88.24852,2621
4046332,TX,Henderson,32.15322,-94.79938,13529
4046430,TX,Natalia,29.18968,-98.86253,1490
4046434,TX,New Falcon,26.63866,-99.09559,191
4046474,TX,Rankin,32.2057,-96.70666,718
4046499,AL,Bear Creek,34.27482,-87.70058,1047
4046538,TX,South Toledo Bend,31.15324,-93.60462,524
4046667,AL,Beatrice,31.73349,-87.20471,285
4046704,VA,Fort Hunt,38.73289,-77.05803,16045
4046734,VA,Hallwood,37.87763,-75.58909,204
4046820,VA,Nelsonia,37.81985,-75.58715,523
4046890,VA,Sperryville,38.65707,-78.22611,342
4046907,AL,Beaverton,33.93122,-88.02031,187
4046946,VA,Yorktown,37.23858,-76.50894,195
4047028,WV,Hambleton,39.08205,-79.64534,226
4047094,WV,New Richmond,37.57011,-81.48872,238
4047198,AL,Brighton,33.43428,-86.94721,2862
4047199,AL,Belgreen,34.47482,-87.86642,129
4047204,AL,Akron,32.87652,-87.74251,337
4047225,AL,Belk,33.64761,-87.93141,210
4047321,AL,Bellamy,32.44903,-88.13363,543
4047357,AL,Bellefontaine,30.49353,-88.10361,608
4047404,AL,Plateau,30.73562,-88.06063,2000
4047424,AR,East Camden,33.60789,-92.74016,862
4047464,AL,Colony,33.94566,-86.90167,385
4047474,AL,Wilton,33.07873,-86.88166,687
4047540,AR,Cove,34.43511,-94.41133,373
4047572,AR,Guy,35.32536,-92.33432,718
4047658,AR,Pollard,36.43089,-90.26843,208
4047692,AR,Thornton,33.779,-92.49182,398
4047719,AL,Benton,32.30681,-86.81776,46
4047734,DE,Ocean View,38.54511,-75.08907,2035
4047827,AL,Berry,33.65983,-87.60001,1113
4047852,FL,Matlacha,26.6298,-82.07092,677
4047906,FL,Trinity,28.18085,-82.68177,10907
4047914,FL,Villas,26.55035,-81.8687,11569
4048023,AL,Bessemer,33.40178,-86.95444,26730
4048084,GA,Lenox,31.27158,-83.46488,852
4048094,GA,Patterson,31.38744,-82.14012,751
4048270,IL,LaPlace,39.80004,-88.71757,259
4048332,IN,Aurora,39.057,-84.90134,3701
4048388,IN,New Pekin,38.50506,-86.01692,1378
4048408,IN,Troy,37.99533,-86.79777,371
4048446,KY,Fairview,36.84338,-87.30389,286
4048466,KS,Severance,39.76722,-95.24998,93
4048468,KS,Prairie View,39.83251,-99.57261,128
4048488,KS,Stockton,39.43807,-99.2651,1322
4048512,KY,Chaplin,37.89784,-85.22134,418
4048514,KY,Broeck Pointe,38.29563,-85.58607,281
4048662,KY,Paducah,37.08339,-88.60005,24864
4048794,LA,Dixie Inn,32.59515,-93.3385,263
4048850,LA,Monticello,32.59653,-91.394,4718
4048888,LA,Red Chute,32.55598,-93.61323,6261
4048920,LA,Sun,30.64908,-89.89257,483
4049008,MD,Ernstville,39.63287,-78.02667,56
4049018,MD,Fairview,39.71232,-77.84305,76
4049032,MD,Jessup,39.14927,-76.77525,7137
4049046,MD,McCoole,39.44648,-78.97225,511
4049120,MO,Amoret,38.2553,-94.58773,184
4049182,MO,Cowgill,39.55918,-93.92688,180
4049194,MO,Gordonville,37.31116,-89.67926,400
4049312,MO,Prathersville,39.0181,-92.32185,128
4049714,NC,Faith,35.58708,-80.46284,811
4049843,AL,Billingsley,32.65957,-86.71776,141
4049858,NC,Polkville,35.41763,-81.64287,536
4049908,NC,Vass,35.25627,-79.28225,749
4049950,NC,Waves,35.56685,-75.46849,134
4049979,AL,Birmingham,33.52066,-86.80249,212461
4050006,OH,Delhi Hills,39.09284,-84.61272,5259
4050068,OH,Racine,38.97119,-81.9143,662
4050081,AL,Black,31.00935,-85.74438,208
4050118,OH,Turpin Hills,39.11006,-84.37994,5099
4050166,OK,Dale,35.39007,-97.04503,181
4050172,OK,Christie,35.95814,-94.69023,218
4050178,OK,Cole,35.10229,-97.57281,570
4050296,OK,Watts,36.10925,-94.57022,311
4050356,SC,Lugoff,34.22737,-80.68925,7434
4050552,TN,Cordova,35.15565,-89.7762,68779
4050655,AL,Blountsville,34.08149,-86.5911,1697
4050834,TN,Slayden,36.29478,-87.47029,181
4050845,AL,Blue Mountain,33.68455,-85.84274,233
4050879,AL,Blue Ridge,32.49264,-86.19052,1341
4050880,TX,Buda,30.08521,-97.84028,13705
4050916,TX,Beasley,29.49746,-95.91801,665
4050960,AL,Blue Springs,31.66378,-85.50661,92
4051059,AL,Boaz,34.20065,-86.16637,9688
4051184,AL,Boligee,32.75597,-88.02891,309
4051214,AL,Bon Air,33.26372,-86.33553,114
4051458,AL,Boykin,32.07792,-87.28138,275
4051560,AL,Branchville,33.7,-86.4,973
4051581,AL,Brantley,31.58238,-86.25718,805
4051597,AL,Brantleyville,33.21595,-86.87499,884
4051669,AL,Brent,32.93735,-87.16472,4898
4051714,AL,Brewton,31.10518,-87.07219,5434
4051774,AL,Bridgeport,34.94758,-85.71442,2355
4051827,AL,Brilliant,34.02538,-87.75836,884
4051894,AL,Brook Highland,33.43566,-86.67388,6746
4051955,AL,Brookside,33.63788,-86.91666,1329
4051971,AL,Brookwood,33.25567,-87.32083,1822
4051994,AL,Broomtown,34.36065,-85.52163,182
4052177,AL,Brundidge,31.72016,-85.81606,1989
4052393,AL,Bucks,31.01046,-88.02417,32
4052726,AL,Butler,32.08959,-88.22197,1798
4052824,AL,Bynum,33.61316,-85.96108,1795
4052964,AL,Cahaba Heights,33.464,-86.73193,5287
4053050,AL,Calera,33.1029,-86.7536,13213
4053172,AL,Calvert,31.15517,-88.01,277
4053200,AL,Camden,31.99098,-87.29055,1930
4053318,AL,Camp Hill,32.80041,-85.65357,981
4053671,AL,Carbon Hill,33.89177,-87.52612,1975
4053684,AL,Cardiff,33.64566,-86.93361,54
4053726,AL,Carlton,31.34322,-87.84555,65
4053757,AL,Carolina,31.24073,-86.52774,299
4053823,AL,Carrollton,33.26169,-88.09503,988
4053940,AL,Castleberry,31.29906,-87.02247,565
4053980,AL,Catherine,32.18459,-87.46944,22
4054073,AL,Cedar Bluff,34.22009,-85.60774,1802
4054378,AL,Center Point,33.64566,-86.6836,16655
4054555,AL,Centre,34.15204,-85.67885,3570
4054566,AL,Centreville,32.9462,-87.11669,2704
4054593,AL,Chalkville,33.65316,-86.64777,3901
4054818,AL,Chatom,31.46517,-88.25446,1237
4054852,AL,Chelsea,33.34011,-86.63026,12059
4054866,AL,Cherokee,34.75703,-87.97281,1014
4054996,AL,Chickasaw,30.7638,-88.07472,5954
4055045,AL,Childersburg,33.27817,-86.35498,5046
4055139,AL,Choccolocco,33.65927,-85.70357,2804
4055294,AL,Chunchula,30.92185,-88.20056,210
4055535,AL,Citronelle,31.09073,-88.22806,3887
4055577,AL,Clanton,32.83874,-86.62943,8844
4055597,AL,Susan Moore,34.08371,-86.42832,770
4055650,AL,Clay,33.7026,-86.59971,9655
4055684,AL,Clayhatchee,31.23573,-85.72271,577
4055696,AL,Clayton,31.87822,-85.44966,2925
4055815,AL,Cleveland,33.99093,-86.57749,1315
4055879,AL,Clio,31.70878,-85.6105,1529
4056017,AL,Coaling,33.15901,-87.34083,1648
4056114,AL,Coffee Springs,31.16462,-85.90938,229
4056118,AL,Coffeeville,31.75794,-88.08973,338
4056154,AL,Coker,33.24595,-87.68779,978
4056381,AL,Collinsville,34.26398,-85.86053,1973
4056409,AL,Colony,33.5651,-86.19914,394
4056419,AL,Columbia,31.29271,-85.11267,737
4056427,AL,Columbiana,33.17817,-86.60721,4168
4056515,AL,Concord,33.46761,-87.03111,1837
4056837,AL,Coosada,32.49791,-86.33136,1240
4056920,AL,Cordova,33.75983,-87.18333,2028
4057139,AL,Cottonwood,31.04879,-85.30493,1264
4057203,AL,County Line,33.82149,-86.7186,261
4057261,AL,Courtland,34.66898,-87.30946,597
4057320,AL,Cowarts,31.20018,-85.30465,1988
4057531,AL,Creola,30.89185,-88.03972,1955
4057731,AL,Crossville,34.28759,-85.99414,1848
4057830,AL,Cuba,32.42877,-88.37679,321
4057835,AL,Cullman,34.17482,-86.84361,15350
4057856,AL,Cullomburg,31.71377,-88.29696,171
4057961,AL,Cusseta,32.78485,-85.30578,124
4058027,AL,Dadeville,32.83124,-85.76357,3150
4058061,AL,Daleville,31.31017,-85.71299,5141
4058198,AL,Danville,34.41454,-87.08751,6242
4058219,AL,Daphne,30.60353,-87.9036,24896
4058262,AL,Dauphin Island,30.25548,-88.10972,1251
4058417,AL,Daviston,33.0529,-85.63968,210
4058460,AL,Dayton,32.35024,-87.64193,50
4058543,AL,Deatsville,32.60819,-86.39581,1157
4058553,AL,Decatur,34.60593,-86.98334,55437
4058595,AL,Deer Park,31.21684,-88.31723,188
4058643,AL,Delta,33.44011,-85.69052,197
4058662,AL,Demopolis,32.51764,-87.8364,7148
4058738,AL,Detroit,34.02816,-88.17004,227
4058904,AL,Dixonville,31.00046,-87.03608,181
4058971,AL,Dodge City,34.04066,-86.88583,603
4059070,AL,Dora,33.72872,-87.09028,1960
4059102,AL,Dothan,31.22323,-85.39049,68567
4059162,AL,Double Springs,34.14637,-87.40247,1056
4059172,AL,Douglas,34.17371,-86.32359,758
4059229,AL,Dozier,31.49211,-86.36496,332
4059584,AL,Dunnavant,33.49344,-86.54415,981
4059701,AL,Dutton,34.61092,-85.91692,310
4059831,AL,East Brewton,31.09323,-87.06275,2419
4059870,AL,East Florence,34.80953,-87.64947,35733
4059956,AL,East Point,34.18315,-86.79361,201
4060176,AL,Eclectic,32.63541,-86.03441,1029
4060232,AL,Edgewater,33.52677,-86.95777,883
4060298,AL,Edwardsville,33.70733,-85.50912,204
4060299,AL,Edwardsville,34.03954,-85.92691,194
4060324,AL,Egypt,34.07371,-86.15581,932
4060381,AL,Elberta,30.41436,-87.59776,1652
4060398,AL,Eldridge,33.92288,-87.61724,128
4060461,AL,Elkmont,34.92897,-86.9739,466
4060625,AL,Emelle,32.7293,-88.31448,50
4060791,AL,Enterprise,31.31517,-85.85522,27978
4060819,AL,Epes,32.69041,-88.12613,183
4060927,AL,Ethelsville,33.41567,-88.2167,73
4060954,AL,Eufaula,31.89127,-85.14549,12596
4060971,AL,Eunola,31.0399,-85.84744,243
4060991,AL,Eutaw,32.84059,-87.88762,2766
4060998,AL,Eva,34.33232,-86.75889,511
4061064,AL,Evergreen,31.4335,-86.95692,3774
4061113,AL,Excel,31.42794,-87.34137,672
4061206,AL,Fairfield,33.48594,-86.91194,10907
4061231,AL,Fairford,31.16823,-88.06417,186
4061234,AL,Fairhope,30.52297,-87.90333,18730
4061265,AL,Fairview,34.25537,-86.68805,456
4061466,AL,Falkville,34.36843,-86.90862,1268
4061575,AL,Faunsdale,32.45986,-87.59389,94
4061586,AL,Fayette,33.68455,-87.83085,4490
4061602,AL,Fayetteville,33.14567,-86.40581,1284
4062297,AL,Fitzpatrick,32.21653,-85.88884,83
4062312,AL,Five Points,33.01818,-85.35023,142
4062523,AL,Flint City,34.52315,-86.97029,1033
4062568,AL,Florala,31.00518,-86.328,1973
4062577,AL,Florence,34.79981,-87.67725,40026
4062595,AL,Flomaton,31.00018,-87.26081,1411
4062644,AL,Foley,30.40659,-87.6836,17218
4062774,AL,Forestdale,33.57011,-86.89638,10162
4062791,AL,Forkland,32.64819,-87.88335,601
4062824,AL,Fort Deposit,31.98459,-86.57859,1240
4062861,AL,Fort Payne,34.44425,-85.71969,14150
4063118,AL,Franklin,32.47847,-85.80246,132
4063182,AL,Fredonia,32.98985,-85.28856,199
4063475,AL,Frisco City,31.4335,-87.40138,1223
4063514,AL,Fruithurst,33.73094,-85.43384,282
4063533,AL,Fruitdale,31.34267,-88.40779,185
4063555,AL,Fulton,31.78849,-87.72722,261
4063570,AL,Fultondale,33.60483,-86.79388,9048
4063613,AL,Fyffe,34.44676,-85.90414,1023
4063619,AL,Gadsden,34.01434,-86.00639,36084
4063652,AL,Gainesville,32.82096,-88.15891,197
4063684,AL,Gallant,33.99871,-86.24526,855
4063738,AL,Gantt,31.40683,-86.48413,223
4063753,AL,Garden City,34.01454,-86.74694,496
4063765,AL,Gardendale,33.6601,-86.81277,13711
4063902,AL,Gaylesville,34.26843,-85.55691,144
4063917,AL,Geiger,32.86819,-88.30503,161
4063926,AL,Geneva,31.03296,-85.86382,4460
4064006,AL,Georgiana,31.6371,-86.74192,1667
4064020,AL,Geraldine,34.35148,-86.00081,902
4064105,AL,Gilbertown,31.8771,-88.32141,205
4064310,AL,Glencoe,33.95704,-85.93247,5153
4064341,AL,Glen Allen,33.9151,-87.74169,498
4064354,AL,Glenwood,31.6646,-86.17134,189
4064484,AL,Goldville,33.08373,-85.78385,54
4064548,AL,Good Hope,34.11593,-86.86361,2281
4064598,AL,Goodwater,33.06567,-86.0533,1343
4064664,AL,Gordo,33.32012,-87.9028,1687
4064671,AL,Gordon,31.14129,-85.0966,327
4064706,AL,Goshen,31.72294,-86.11829,257
4064812,AL,Graham,33.45761,-85.32078,211
4064840,AL,Grand Bay,30.47631,-88.34223,3672
4064871,AL,Grant,34.5287,-86.25332,903
4065029,AL,Grayson Valley,33.64816,-86.63943,5736
4065034,AL,Graysville,33.62066,-86.97138,2096
4065282,AL,Greensboro,32.70415,-87.5955,2387
4065302,AL,Greenville,31.8296,-86.61775,7845
4065421,AL,Grimes,31.30462,-85.44799,546
4065422,AL,Grimes,33.16762,-87.39111,469
4065475,AL,Grove Hill,31.70877,-87.77722,1494
4065508,AL,Gu-Win,33.96094,-87.88058,173
4065524,AL,Guin,33.96566,-87.91475,2322
4065552,AL,Gulf Shores,30.24604,-87.70082,11131
4065575,AL,Gulfcrest,30.99546,-88.23751,161
4065649,AL,Guntersville,34.35823,-86.29446,8385
4065664,AL,Gurley,33.77649,-86.63777,886
4065665,AL,Gurley,34.70176,-86.37582,788
4065731,AL,Hackleburg,34.27732,-87.82864,1486
4065747,AL,Hackneyville,33.0604,-85.93302,347
4065814,AL,Haleburg,31.40656,-85.13715,101
4065830,AL,Haleyville,34.22649,-87.62141,4088
4065965,AL,Hamilton,34.14232,-87.98864,6772
4066038,AL,Hammondville,34.58175,-85.62663,487
4066065,AL,Hanceville,34.06065,-86.7675,3281
4066335,AL,Harpersville,33.344,-86.43804,1681
4066437,AL,Hartford,31.1024,-85.69688,2647
4066449,AL,Hartselle,34.44343,-86.93528,14493
4066463,AL,Harvest,34.85564,-86.75083,5281
4066542,AL,Hatton,34.56287,-87.4153,261
4066613,AL,Hayden,33.8926,-86.75777,1341
4066661,AL,Hayneville,32.18403,-86.58025,862
4066686,AL,Hazel Green,34.93231,-86.57194,3630
4066716,AL,Headland,31.35128,-85.34216,4736
4066751,AL,Heath,31.36072,-86.46968,257
4066793,AL,Heflin,33.64899,-85.58746,3499
4066811,AL,Helena,33.29622,-86.8436,18264
4066844,AL,Henagar,34.63508,-85.76719,2346
4067245,AL,Highland Lake,33.8851,-86.41971,424
4067432,AL,Hillsboro,34.63926,-87.19168,519
4067501,AL,Hissop,32.89235,-86.1533,658
4067532,AL,Hobson,31.47239,-88.15334,126
4067534,AL,Hobson City,33.62149,-85.84413,768
4067557,AL,Hodges,34.32704,-87.92642,285
4067623,AL,Hokes Bluff,33.99815,-85.86636,4301
4067725,AL,Hollins,33.11762,-86.14442,545
4067752,AL,Hollis Crossroads,33.52372,-85.63718,608
4067784,AL,Holly Pond,34.17426,-86.61638,812
4067814,AL,Hollywood,34.72425,-85.97248,974
4067815,AL,Hollywood,33.47288,-86.78304,930
4067840,AL,Holt,33.23401,-87.48445,3638
4067862,AL,Holtville,32.63624,-86.32664,4096
4067927,AL,Homewood,33.47177,-86.80082,25708
4067994,AL,Hoover,33.40539,-86.81138,84848
4068149,AL,Horn Hill,31.24573,-86.31662,229
4068226,AL,Horton,34.20093,-86.29692,4450
4068446,AL,Hueytown,33.45122,-86.99666,15710
4068506,AL,Huguley,32.83457,-85.22966,2540
4068590,AL,Huntsville,34.7304,-86.58594,215006
4068707,AL,Hurtsboro,32.24181,-85.41633,600
4068761,AL,Hytop,34.9162,-86.08804,349
4068778,AL,Ider,34.71425,-85.6808,716
4068933,AL,Indian Springs Village,33.35539,-86.75443,2523
4069210,AL,Inverness,32.01488,-85.74606,1621
4069243,AL,Irondale,33.53816,-86.70721,12423
4069309,AL,Ivalee,34.03454,-86.14525,879
4069458,AL,Jackson,31.50905,-87.89444,4967
4069545,AL,Jacksons Gap,32.88624,-85.81163,828
4069553,AL,Jacksonville,33.81382,-85.7613,12222
4069659,AL,Jasper,33.83122,-87.27751,14071
4069722,AL,Jemison,32.95985,-86.74665,2619
4070318,AL,Joppa,34.29787,-86.5561,501
4070324,AL,Joquin,31.78654,-86.16412,501
4070478,AL,Kansas,33.90177,-87.55196,221
4070603,AL,Kellyton,32.97984,-86.03358,200
4070649,AL,Kennedy,33.58706,-87.98447,428
4070786,AL,Killen,34.86286,-87.53753,982
4070806,AL,Kimberly,33.77344,-86.81388,2892
4070997,AL,Kinsey,31.29906,-85.34438,2197
4071000,AL,Kinston,31.216,-86.17106,540
4071262,AL,Ladonia,32.4682,-85.0791,3142
4071267,AL,Lafayette,32.89985,-85.40106,3003
4071488,AL,Lake Purdy,33.43011,-86.68054,7857
4071540,AL,Lake View,33.28067,-87.1375,2114
4071611,AL,Lakeview,34.39092,-85.97831,143
4071763,AL,Lanett,32.86874,-85.1905,6452
4071801,AL,Langston,34.53898,-86.07442,266
4072130,AL,Leeds,33.54816,-86.54443,11936
4072156,AL,Leesburg,34.17982,-85.76136,1014
4072183,AL,Leighton,34.70092,-87.52892,712
4072240,AL,Leroy,31.50461,-87.98472,911
4072250,AL,Lester,33.99926,-86.12109,110
4072251,AL,Lester,34.99064,-87.15335,121
4072271,AL,Level Plains,31.29962,-85.77799,2023
4072339,AL,Lexington,34.96925,-87.37113,723
4072543,AL,Libertyville,31.24156,-86.46134,116
4072752,AL,Linden,32.30625,-87.79807,2025
4072767,AL,Lincoln,33.61316,-86.11831,6524
4072814,AL,Lineville,33.31067,-85.75441,2319
4072834,AL,Lisman,32.16876,-88.28253,505
4072842,AL,Lipscomb,33.42566,-86.92666,2155
4073357,AL,Littleville,34.59065,-87.67697,990
4073358,AL,Littleville,34.25149,-87.57502,939
4073383,AL,Livingston,32.5843,-88.18725,3414
4073413,AL,Loachapoka,32.6043,-85.59329,190
4073483,AL,Lockhart,31.01046,-86.34967,519
4073504,AL,Locust Fork,33.9076,-86.61527,1192
4073771,AL,Louisville,31.7835,-85.55578,487
4073889,AL,Lowndesboro,32.27514,-86.61137,107
4073897,AL,Loxley,30.61825,-87.75305,1785
4073985,AL,Luverne,31.71655,-86.26385,2834
4074013,AL,Lynn,34.04705,-87.54974,641
4074076,AL,Macedonia,33.39151,-88.23337,292
4074267,AL,Madison,34.69926,-86.74833,46962
4074307,AL,Madrid,31.03574,-85.39327,338
4074363,AL,Magnolia Springs,30.39964,-87.7761,791
4074407,AL,Malcolm,31.19128,-88.0075,187
4074452,AL,Malvern,31.13934,-85.5191,1446
4074544,AL,Maplesville,32.78897,-86.87353,704
4074568,AL,Marbury,32.70124,-86.47109,1418
4074599,AL,Margaret,33.68621,-86.47498,4554
4074673,AL,Marion,32.63235,-87.31917,3447
4074991,AL,Matthews,32.26542,-86.00385,593
4075138,AL,Maytown,33.53594,-86.99722,374
4075368,AL,McDonald Chapel,33.52177,-86.9336,717
4075481,AL,McIntosh,31.26628,-88.03139,226
4075526,AL,McKenzie,31.54238,-86.71497,513
4075581,AL,McMullen,33.14873,-88.17642,10
4075692,AL,Meadowbrook,33.40205,-86.69665,8769
4075759,AL,Megargel,31.37989,-87.42832,62
4075831,AL,Memphis,31.13268,-85.37549,31
4075832,AL,Memphis,33.13651,-88.29753,28
4075854,AL,Meridianville,34.85148,-86.57222,6021
4075871,AL,Mentone,34.57918,-85.59009,368
4075977,AL,Midfield,33.4615,-86.90888,5222
4075984,AL,Midland City,31.31906,-85.49382,2386
4075989,AL,Midway,32.0771,-85.52217,488
4076066,AL,Mignon,33.18345,-86.26109,1284
4076239,AL,Millbrook,32.47986,-86.36192,15314
4076341,AL,Millerville,33.19151,-85.9258,278
4076358,AL,Millport,33.56345,-88.08142,998
4076361,AL,Millry,31.63405,-88.31335,524
4076468,AL,Minor,33.53733,-86.94055,1094
4076598,AL,Mobile,30.69436,-88.04305,194288
4076725,AL,Monroeville,31.52794,-87.32471,6110
4076771,AL,Montevallo,33.10067,-86.86416,6648
4076784,AL,Montgomery,32.36681,-86.29997,200603
4076842,AL,Moody,33.59094,-86.49082,12593
4076982,AL,Moores Mill,34.84398,-86.51832,5682
4076991,AL,Mooresville,34.62642,-86.88057,58
4077143,AL,Morris,33.74816,-86.8086,1934
4077216,AL,Morrison Crossroads,33.4265,-85.49329,219
4077283,AL,Mosses,32.17459,-86.67192,955
4077329,AL,Moulton,34.48121,-87.29335,3337
4077349,AL,Moundville,32.99762,-87.63001,2460
4077865,AL,Mount Olive,33.06956,-86.13497,371
4077867,AL,Mount Olive,33.67094,-86.8561,4079
4078346,AL,Mount Vernon,34.29259,-85.78775,817
4078348,AL,Mount Vernon,31.08518,-88.01333,1518
4078646,AL,Mountain Brook,33.50094,-86.75221,20691
4078753,AL,Mountainboro,34.14704,-86.13053,333
4078764,AL,Movico,31.06462,-88.02555,305
4078859,AL,Mulga,33.54983,-86.97416,819
4078898,AL,Munford,33.52983,-85.9508,1259
4078964,AL,Muscle Shoals,34.74481,-87.66753,13706
4079016,AL,Myrtlewood,32.25042,-87.94974,124
4079053,AL,Nanafalia,32.11293,-87.98807,94
4079067,AL,Nances Creek,33.85788,-85.65691,407
4079080,AL,Napier Field,31.31545,-85.4541,347
4079142,AL,Natural Bridge,34.09344,-87.60197,36
4079154,AL,Nauvoo,33.98955,-87.4889,213
4079226,AL,Nectar,33.95982,-86.63944,345
4079234,AL,Needham,31.98793,-88.33669,91
4079423,AL,New Brockton,31.38572,-85.92939,1159
4079630,AL,New Hope,34.53712,-86.39426,2800
4079916,AL,New Market,34.91003,-86.42779,1597
4080080,AL,New Site,33.03734,-85.77413,755
4080144,AL,Newbern,32.59319,-87.53278,179
4080193,AL,Newton,31.33517,-85.60521,1472
4080208,AL,Newville,31.42184,-85.33771,520
4080395,AL,North Bibb,33.20401,-87.15305,1013
4080417,AL,North Courtland,34.67231,-87.32974,632
4080476,AL,North Johns,33.36733,-87.10361,142
4080555,AL,Northport,33.22901,-87.57723,24772
4080646,AL,Notasulga,32.56069,-85.67245,856
4080754,AL,Oak Grove,33.19178,-86.29942,517
4081047,AL,Oak Hill,31.92186,-87.08349,25
4081082,AL,Oakman,33.71344,-87.38862,760
4081166,AL,Odenville,33.67732,-86.39665,3695
4081197,AL,Ohatchee,33.78343,-86.00247,1146
4081643,AL,Onycha,31.21406,-86.28328,185
4081644,AL,Opelika,32.64541,-85.37828,29527
4081671,AL,Oneonta,33.94815,-86.47276,6615
4081683,AL,Opp,31.28267,-86.25551,6658
4081696,AL,Orange Beach,30.29437,-87.57359,5850
4081740,AL,Orrville,32.30625,-87.24555,190
4081816,AL,Our Town,32.82818,-85.96191,641
4081904,AL,Owens Cross Roads,34.58815,-86.45888,1785
4081914,AL,Oxford,33.61427,-85.83496,21249
4081936,AL,Ozark,31.45906,-85.64049,14719
4081981,AL,Paint Rock,34.66064,-86.32887,207
4082061,AL,Panola,32.95068,-88.26892,144
4082250,AL,Parrish,33.73066,-87.28445,963
4082569,AL,Pelham,33.28567,-86.80999,22885
4082589,AL,Pell City,33.58621,-86.28609,13646
4082633,AL,Pennington,32.20709,-88.05613,210
4082665,AL,Penton,33.00651,-85.46551,201
4082688,AL,Perdido Beach,30.34076,-87.50498,581
4082804,AL,Peterman,31.5846,-87.25943,89
4082833,AL,Petrey,31.84876,-86.20774,59
4082866,AL,Phenix City,32.47098,-85.00077,37570
4082869,AL,Phil Campbell,34.35093,-87.70642,1235
4082983,AL,Pickensville,33.22734,-88.26642,581
4083004,AL,Piedmont,33.92455,-85.61135,4714
4083073,AL,Pike Road,32.28431,-86.10302,8274
4083181,AL,Pinckard,31.31156,-85.55299,634
4083190,AL,Pine Apple,31.87342,-86.98922,126
4083370,AL,Pine Hill,31.97959,-87.58806,919
4083414,AL,Pine Level,32.58374,-86.46553,4183
4083461,AL,Pine Ridge,34.43953,-85.78441,283
4083697,AL,Pinson,33.68899,-86.68332,7438
4083725,AL,Pisgah,34.68092,-85.84775,711
4083727,AL,Pisgah,31.99682,-86.11829,697
4083844,AL,Pleasant Grove,34.94369,-85.92165,447
4083846,AL,Pleasant Grove,33.49094,-86.97027,10260
4084324,AL,Point Clear,30.47408,-87.91916,2125
4084382,AL,Pollard,31.02713,-87.17358,135
4084691,AL,Powell,34.53183,-85.89455,957
4084796,AL,Prattville,32.46402,-86.4597,35420
4084883,AL,Priceville,34.52509,-86.89473,3179
4084888,AL,Prichard,30.7388,-88.07889,22351
4085003,AL,Providence,32.34181,-87.78057,214
4085190,AL,Putnam,32.02265,-88.0314,193
4085311,AL,Ragland,33.74454,-86.15581,1682
4085336,AL,Rainbow City,33.95482,-86.04192,9580
4085373,AL,Rainsville,34.49425,-85.84775,5031
4085416,AL,Ranburne,33.52289,-85.34467,409
4085474,AL,Ray,32.88735,-86.03774,443
4085521,AL,Red Bay,34.43982,-88.14087,3131
4085582,AL,Red Level,31.40711,-86.61219,490
4085659,AL,Reece City,34.07232,-86.03331,632
4085711,AL,Reeltown,32.60374,-85.80524,766
4085739,AL,Reform,33.37845,-88.0153,1632
4085771,AL,Rehobeth,31.12296,-85.45271,1449
4085852,AL,Repton,31.40906,-87.23915,272
4086082,AL,Ridgeville,34.05565,-86.1022,105
4086224,AL,Riverside,33.60621,-86.20442,2300
4086254,AL,Riverview,31.06046,-87.05997,182
4086255,AL,Riverview,33.21984,-87.52834,97
4086277,AL,River Falls,31.35327,-86.54102,527
4086285,AL,Roanoke,33.15123,-85.37217,6005
4086363,AL,Robertsdale,30.5538,-87.71193,5894
4086500,AL,Rock Creek,33.47705,-87.08027,1456
4086552,AL,Rock Mills,33.15984,-85.28745,600
4086637,AL,Rockford,32.88957,-86.21969,449
4086661,AL,Rockville,31.42017,-87.8425,43
4086921,AL,Rogersville,34.82578,-87.29676,1231
4087004,AL,Rosa,33.99065,-86.51332,319
4087313,AL,Russellville,34.50787,-87.72864,9847
4087350,AL,Rutledge,31.73043,-86.30968,459
4087519,AL,St. Florian,34.87342,-87.62336,464
4088087,AL,Saint Stephens,31.5398,-88.05463,495
4088146,AL,Saks,33.69871,-85.83969,10744
4088360,AL,Samson,31.11295,-86.04605,1928
4088458,AL,Sand Rock,34.24287,-85.76858,558
4088594,AL,Sanford,31.29823,-86.38912,247
4088628,AL,Saraland,30.82074,-88.07056,13906
4088704,AL,Sardis City,34.17426,-86.12275,1755
4088737,AL,Satsuma,30.85324,-88.05611,6182
4088916,AL,Scottsboro,34.67231,-86.03415,14722
4089040,AL,Section,34.57897,-85.98664,759
4089114,AL,Selma,32.40736,-87.0211,19519
4089148,AL,Semmes,30.77824,-88.25917,3886
4089536,AL,Sheffield,34.76509,-87.69864,9108
4089549,AL,Shelby,33.1104,-86.58415,1044
4089709,AL,Shiloh,34.46259,-85.87969,275
4089710,AL,Shiloh,34.83508,-85.6033,266
4090008,AL,Shorter,32.39486,-85.9169,429
4090084,AL,Silas,31.76543,-88.32918,432
4090139,AL,Silverhill,30.54547,-87.75166,761
4090208,AL,Sims Chapel,31.21962,-88.14862,153
4090262,AL,Sipsey,33.82483,-87.08611,426
4090386,AL,Skyline,34.81397,-86.11526,839
4090470,AL,Slocomb,31.10823,-85.59438,1972
4090684,AL,Smiths Station,32.54014,-85.09855,5300
4090700,AL,Smoke Rise,33.89177,-86.82027,1825
4090747,AL,Snead,34.11954,-86.39554,843
4090853,AL,Somerville,34.47338,-86.7987,716
4091006,AL,South Vinemont,34.23899,-86.86445,757
4091058,AL,Southside,33.92454,-86.02247,8572
4091136,AL,Spanish Fort,30.67491,-87.91527,8065
4091338,AL,Spring Garden,33.97288,-85.55385,238
4091542,AL,Springville,33.77505,-86.47191,4198
4091553,AL,Spruce Pine,34.39204,-87.72642,222
4091611,AL,Standing Rock,33.07984,-85.253,168
4091755,AL,Steele,33.93982,-86.20164,1078
4091847,AL,Sterrett,33.44872,-86.47998,712
4091859,AL,Stevenson,34.86869,-85.83942,1991
4091923,AL,Stewartville,33.07929,-86.24442,1767
4092267,AL,Sulligent,33.90177,-88.13448,1844
4092333,AL,Sumiton,33.75566,-87.05,2418
4092347,AL,Summerdale,30.4877,-87.69971,1128
4092589,AL,Sweet Water,32.09737,-87.86751,246
4092671,AL,Sylacauga,33.17317,-86.25164,12657
4092689,AL,Sylvan Springs,33.51566,-87.01499,1524
4092692,AL,Sylvania,34.56231,-85.81247,1854
4092788,AL,Talladega,33.43594,-86.1058,15709
4092817,AL,Talladega Springs,33.12151,-86.44331,163
4092853,AL,Tallassee,32.53597,-85.89329,4778
4092970,AL,Tarrant,33.58344,-86.77277,6210
4093048,AL,Taylor,31.1649,-85.46827,2402
4093050,AL,Taylor,31.97543,-86.2333,1946
4093399,AL,Theodore,30.54769,-88.17528,6130
4093487,AL,Thomaston,32.26667,-87.62546,398
4093488,AL,Thomasville,31.91349,-87.73584,4051
4093619,AL,Thorsby,32.91568,-86.71582,2044
4093697,AL,Tibbie,31.36211,-88.24862,41
4093753,AL,Tillmans Corner,30.59019,-88.17084,17398
4093897,AL,Town Creek,34.6812,-87.40613,1065
4093954,AL,Toxey,31.91293,-88.30946,131
4093961,AL,Trafford,33.81816,-86.74277,634
4094025,AL,Triana,34.5862,-86.73333,525
4094048,AL,Trinity,34.60676,-87.08835,2157
4094163,AL,Troy,31.80877,-85.96995,18853
4094212,AL,Trussville,33.61983,-86.60888,21023
4094455,AL,Tuscaloosa,33.20984,-87.56917,98332
4094484,AL,Tuscumbia,34.7312,-87.70253,8474
4094490,AL,Tuskegee,32.42415,-85.69096,8817
4094655,AL,Union,32.98818,-87.91502,223
4094803,AL,Union Grove,34.40176,-86.44915,79
4094975,AL,Union Springs,32.14432,-85.71495,3919
4094997,AL,Uniontown,32.44958,-87.51417,2415
4095185,AL,Uriah,31.30517,-87.50221,294
4095186,AL,Valley,32.81874,-85.17939,9464
4095213,AL,Valley Grande,32.50902,-86.98749,3849
4095233,AL,Valley Head,34.56897,-85.61497,550
4095288,AL,Vandiver,33.47066,-86.51332,1135
4095294,AL,Vance,33.17428,-87.23361,1513
4095392,AL,Vernon,33.75705,-88.10892,1895
4095415,AL,Vestavia Hills,33.44872,-86.78777,34174
4095516,AL,Vina,34.37649,-88.05865,357
4095522,AL,Vincent,33.38455,-86.41192,2120
4095536,AL,Vinegar Bend,31.26378,-88.34474,192
4095595,AL,Vredenburgh,31.82849,-87.32166,295
4096021,AL,Wadley,33.12289,-85.56968,738
4096076,AL,Waldo,33.38039,-86.02691,278
4096248,AL,Walnut Grove,34.06565,-86.30637,685
4096404,AL,Warrior,33.81427,-86.80944,3199
4096497,AL,Waterloo,34.91814,-88.0642,200
4096607,AL,Waverly,32.73541,-85.57912,148
4096645,AL,Weaver,33.75205,-85.81135,3091
4096678,AL,Webb,31.26045,-85.27327,1413
4096712,AL,Wedowee,33.309,-85.48467,809
4096863,AL,Weogufka,33.01651,-86.3122,282
4096956,AL,West Blocton,33.11817,-87.125,1261
4097071,AL,West Jefferson,33.64927,-87.06861,336
4097095,AL,West Point,34.23871,-86.95917,593
4097206,AL,Weston,34.15982,-88.03198,384
4097211,AL,Westover,33.34955,-86.53582,1473
4097257,AL,Wetumpka,32.54374,-86.21191,7994
4097283,AL,Whatley,31.65071,-87.705,150
4097406,AL,White Hall,32.32708,-86.71192,811
4097459,AL,White Plains,33.74732,-85.68913,811
4097588,AL,Whitesboro,34.16343,-86.06942,2138
4098005,AL,Wilmer,30.82324,-88.3614,597
4098110,AL,Wilsonville,33.23428,-86.48359,1980
4098161,AL,Winfield,33.92899,-87.81725,4570
4098388,AL,Woodland,32.52986,-85.77273,202
4098389,AL,Woodland,33.37428,-85.39967,183
4098518,AL,Woodstock,33.20678,-87.15,1547
4098527,AL,Woodville,34.62787,-86.27443,735
4098720,AL,Yellow Bluff,31.96765,-87.46805,188
4098776,AL,York,32.48625,-88.29642,2399
4099116,AR,Adona,35.03814,-92.89795,204
4099194,AR,Alexander,34.62954,-92.44127,2848
4099224,AR,Alicia,35.89313,-91.0829,119
4099293,AR,Allport,34.54204,-91.78402,114
4099296,AR,Alma,35.47787,-94.22188,5575
4099313,AR,Almyra,34.40621,-91.40957,274
4099318,AR,Alpena,36.29479,-93.29213,394
4099347,AR,Altheimer,34.31926,-91.84736,894
4099350,AR,Altus,35.4462,-93.76242,730
4099369,AR,Amagon,35.56202,-91.1104,93
4099390,AR,Amity,34.26482,-93.46102,702
4099489,AR,Anthonyville,35.03954,-90.34093,151
4099573,AR,Antoine,34.03622,-93.42073,112
4099647,AR,Arkadelphia,34.12093,-93.05378,10745
4099673,AR,Arkansas City,33.60872,-91.20678,327
4099837,AR,Ash Flat,36.22396,-91.60848,1064
4099852,AR,Ashdown,33.67429,-94.13131,4479
4099932,AR,Atkins,35.24647,-92.93656,3051
4099952,AR,Augusta,35.28231,-91.36541,2051
4099974,AR,Austin,34.99842,-91.98376,3383
4100003,AR,Aubrey,34.71676,-90.90039,155
4100008,AR,Avoca,36.40202,-94.07076,512
4100028,AR,Avilla,34.68259,-92.58516,896
4100170,AR,Bald Knob,35.30981,-91.56791,2908
4100255,AR,Banks,33.57483,-92.26903,120
4100348,AR,Barling,35.32565,-94.3016,4740
4100496,AR,Bassett,35.53647,-90.12676,162
4100525,AR,Batesville,35.7698,-91.64097,10668
4100574,AR,Bauxite,34.55565,-92.52127,495
4100592,AR,Bay,35.7423,-90.56233,1813
4100808,AR,Bearden,33.72455,-92.61571,897
4100856,AR,Beaver,36.47368,-93.76742,101
4100984,AR,Beebe,35.07064,-91.87959,8106
4101049,AR,Beedeville,35.42897,-91.10985,101
4101114,AR,Bella Vista,36.4807,-94.27134,27999
4101133,AR,Bellefonte,36.20091,-93.04851,478
4101139,AR,Belleville,35.09315,-93.44852,433
4101196,AR,Ben Lomond,33.8354,-94.11853,147
4101241,AR,Benton,34.56454,-92.58683,34177
4101260,AR,Bentonville,36.37285,-94.20882,44499
4101279,AR,Bergman,36.31618,-93.00767,448
4101309,AR,Berryville,36.36479,-93.56797,5371
4101456,AR,Bethel Heights,36.21424,-94.12937,2490
4101759,AR,Big Flat,36.00507,-92.40433,103
4101907,AR,Bigelow,35.0012,-92.62988,308
4101909,AR,Biggers,36.33256,-90.80623,337
4101970,AR,Birdsong,35.45842,-90.2626,38
4101989,AR,Biscoe,34.82093,-91.4043,466
4102065,AR,Black Oak,35.83896,-90.36816,262
4102067,AR,Black Oak,35.98341,-94.07965,290
4102088,AR,Black Rock,36.1084,-91.09735,625
4102096,AR,Black Springs,34.46121,-93.71269,96
4102238,AR,Blevins,33.87178,-93.57712,308
4102305,AR,Blue Eye,36.49784,-93.39796,30
4102362,AR,Blue Mountain,35.13037,-93.71158,120
4102380,AR,Bluff City,33.71844,-93.13406,119
4102412,AR,Blytheville,35.9273,-89.91898,14694
4102466,AR,Bodcaw,33.55845,-93.40712,132
4102553,AR,Bonanza,35.23926,-94.42605,556
4102581,AR,Bono,35.90868,-90.80262,2236
4102622,AR,Booneville,35.14009,-93.92159,3888
4102782,AR,Bradford,35.42314,-91.45596,760
4102790,AR,Bradley,33.09819,-93.6549,566
4102849,AR,Branch,35.30565,-93.95354,358
4102963,AR,Briarcliff,36.27507,-92.28627,235
4103042,AR,Brinkley,34.88787,-91.19457,2890
4103117,AR,Brookland,35.90007,-90.58205,2977
4103448,AR,Bryant,34.59593,-92.48905,19986
4103554,AR,Buckner,33.35846,-93.43601,252
4103678,AR,Bull Shoals,36.38396,-92.58155,1933
4103737,AR,Burdette,35.8173,-89.93925,179
4103957,AR,Cabot,34.97453,-92.01653,25587
4104004,AR,Caddo Valley,34.18204,-93.07101,607
4104037,AR,Caldwell,35.07454,-90.81678,498
4104049,AR,Cale,33.62623,-93.24045,76
4104078,AR,Calico Rock,36.11951,-92.13599,1734
4104089,AR,Calion,33.32901,-92.53849,466
4104182,AR,Camden,33.58456,-92.83433,11347
4104189,AR,Cammack Village,34.77815,-92.34904,748
4104297,AR,Campbell Station,35.66841,-91.24485,241
4104566,AR,Caraway,35.75813,-90.32232,1270
4104602,AR,Carlisle,34.78315,-91.74652,2183
4104718,AR,Carthage,34.0751,-92.55544,322
4104737,AR,Casa,35.02287,-93.04767,167
4104754,AR,Cash,35.79424,-90.93651,362
4104836,AR,Caulksville,35.30203,-93.86409,206
4104857,AR,Cave City,35.94174,-91.54847,1868
4104897,AR,Cave Springs,36.26341,-94.23187,3076
4105064,AR,Cedarville,35.56981,-94.36688,1368
4105138,AR,Center Ridge,35.37397,-92.56294,388
4105168,AR,Centerton,36.3598,-94.28521,12023
4105215,AR,Central City,35.31926,-94.25215,494
4105377,AR,Charleston,35.29704,-94.03632,2483
4105427,AR,Cherokee City,36.29841,-94.57772,72
4105435,AR,Cherokee Village,36.29784,-91.51597,4603
4105468,AR,Cherry Valley,35.40203,-90.75317,615
4105478,AR,Chester,35.68092,-94.17521,160
4105514,AR,Chidester,33.70233,-93.02044,271
4105824,AR,Clarendon,34.69315,-91.31374,1504
4105865,AR,Clarkedale,35.30925,-90.23621,353
4105879,AR,Clarksville,35.47147,-93.46657,9433
4106074,AR,Clinton,35.59147,-92.46044,2538
4106126,AR,Coal Hill,35.43731,-93.67297,1025
4106276,AR,College City,36.12535,-90.93929,537
4106292,AR,College Station,34.70815,-92.22126,600
4106336,AR,Colt,35.13148,-90.81122,351
4106405,AR,Concord,35.66369,-91.84764,238
4106458,AR,Conway,35.0887,-92.4421,64980
4106638,AR,Corinth,35.07342,-93.42935,69
4106689,AR,Corning,36.40784,-90.57983,3162
4106721,AR,Cotter,36.27118,-92.53544,951
4106733,AR,Cotton Plant,35.00815,-91.25124,604
4106951,AR,Coy,34.53871,-91.87403,95
4107039,AR,Crawfordsville,35.22509,-90.3251,456
4107198,AR,Crossett,33.12818,-91.96124,5220
4107437,AR,Cushman,35.87285,-91.75403,453
4107556,AR,Daisy,34.23733,-93.74213,110
4107594,AR,Damascus,35.3673,-92.4096,383
4107630,AR,Danville,35.05398,-93.39352,2350
4107641,AR,Dardanelle,35.22314,-93.15795,4659
4107674,AR,Datto,36.39173,-90.73095,94
4107802,AR,De Queen,34.03789,-94.34132,6707
4107820,AR,De Valls Bluff,34.78482,-91.45846,587
4107823,AR,De Witt,34.29288,-91.3379,3292
4107903,AR,Decatur,36.33591,-94.46077,1773
4107991,AR,Delaplaine,36.23368,-90.7265,117
4107997,AR,Delight,34.03149,-93.50296,268
4108001,AR,Dell,35.85535,-90.04176,209
4108038,AR,Dennard,35.75674,-92.52461,530
4108043,AR,Denning,35.42925,-93.75714,307
4108090,AR,Dermott,33.52539,-91.43595,2720
4108091,AR,Des Arc,34.97704,-91.49513,1639
4108167,AR,Diamond City,36.46451,-92.92017,781
4108184,AR,Diaz,35.63841,-91.26513,1248
4108212,AR,Dierks,34.11928,-94.01658,1092
4108849,AR,Donaldson,34.23676,-92.9235,300
4108950,AR,Dover,35.40147,-93.11434,1398
4109226,AR,Dumas,33.88705,-91.49179,4323
4109338,AR,Dyer,35.49231,-94.13771,860
4109346,AR,Dyess,35.5898,-90.21343,384
4109406,AR,Earle,35.27509,-90.46677,2282
4109452,AR,East End,34.55065,-92.34099,6998
4109724,AR,Edmondson,35.10648,-90.31038,404
4109755,AR,Egypt,35.86813,-90.94568,112
4109785,AR,El Dorado,33.20763,-92.66627,18386
4109800,AR,Elaine,34.30844,-90.85205,556
4109857,AR,Elkins,36.00147,-94.00825,2946
4109878,AR,Salesville,36.24535,-92.26516,450
4109927,AR,Elm Springs,36.20619,-94.23437,2147
4109968,AR,Emerson,33.09763,-93.19294,354
4109987,AR,Emmet,33.72623,-93.47045,486
4110001,AR,England,34.54426,-91.96903,2765
4110025,AR,Enola,35.19536,-92.20321,344
4110094,AR,Etowah,35.72897,-90.23232,329
4110100,AR,Eudora,33.10957,-91.26206,2102
4110119,AR,Eureka Springs,36.40118,-93.73797,2083
4110165,AR,Evening Shade,36.07174,-91.61931,421
4110197,AR,Everton,36.15535,-92.90684,134
4110233,AR,Fairfield Bay,35.59424,-92.27793,2268
4110427,AR,Fargo,34.95148,-91.18012,90
4110443,AR,Farmington,36.04202,-94.24715,6701
4110486,AR,Fayetteville,36.06258,-94.15743,82830
4110518,AR,Felsenthal,33.05957,-92.1568,143
4110598,AR,Fifty-Six,35.95757,-92.21849,173
4111014,AR,Fisher,35.49147,-90.97429,218
4111212,AR,Flippin,36.27896,-92.59711,1335
4111307,AR,Foreman,33.72178,-94.39687,951
4111319,AR,Fordyce,33.81372,-92.41293,4027
4111382,AR,Forrest City,35.00815,-90.78983,14672
4111410,AR,Fort Smith,35.38592,-94.39855,88194
4111470,AR,Fouke,33.26124,-93.88546,873
4111479,AR,Fountain Hill,33.35789,-91.85041,168
4111484,AR,Fountain Lake,34.57287,-92.98768,503
4111497,AR,Fourche,34.99398,-92.621,61
4111592,AR,Franklin,36.17035,-91.77598,191
4111735,AR,Friendship,34.22315,-93.00295,176
4111853,AR,Fulton,33.61456,-93.81352,196
4112036,AR,Garfield,36.44841,-93.97409,527
4112042,AR,Garland,33.3629,-93.7099,243
4112067,AR,Garner,35.14148,-91.78625,284
4112110,AR,Gassville,36.28312,-92.49405,2133
4112129,AR,Gateway,36.49035,-93.93187,425
4112163,AR,Gentry,36.26758,-94.48466,3397
4112204,AR,Georgetown,35.12703,-91.45513,124
4112254,AR,Gibson,34.88426,-92.2357,3543
4112280,AR,Gilbert,35.98785,-92.71628,27
4112321,AR,Gillett,34.11732,-91.37651,688
4112324,AR,Gillham,34.16928,-94.31632,162
4112341,AR,Gilmore,35.41175,-90.27843,252
4112430,AR,Glenwood,34.32677,-93.55074,2141
4112638,AR,Gosnell,35.95979,-89.97203,3306
4112660,AR,Goshen,36.10119,-93.99131,1589
4112662,AR,Gould,33.9851,-91.56096,778
4112712,AR,Grady,34.0801,-91.70068,412
4112765,AR,Grannis,34.24067,-94.33493,562
4112871,AR,Gravel Ridge,34.86842,-92.1907,2902
4112898,AR,Gravette,36.42202,-94.45355,3232
4113015,AR,Green Forest,36.33535,-93.43602,2769
4113067,AR,Greenbrier,35.23397,-92.38765,5296
4113113,AR,Greenland,35.99425,-94.1752,1388
4113140,AR,Greenway,36.34117,-90.22038,196
4113143,AR,Greenwood,35.21565,-94.25577,9322
4113167,AR,Greers Ferry,35.57702,-92.17737,871
4113213,AR,Griffithville,35.1237,-91.64513,225
4113265,AR,Grubbs,35.6498,-91.07401,366
4113292,AR,Guion,35.92535,-91.9407,83
4113366,AR,Gum Springs,34.06732,-93.09184,117
4113407,AR,Gurdon,33.92094,-93.15406,2144
4113457,AR,Hackett,35.19037,-94.41105,818
4113467,AR,Hagarville,35.51564,-93.3249,129
4113607,AR,Hamburg,33.22818,-91.79763,2791
4113647,AR,Hampton,33.53789,-92.46988,1281
4113770,AR,Hardy,36.3159,-91.48264,759
4113878,AR,Harrell,33.51011,-92.39876,248
4113951,AR,Harrisburg,35.56425,-90.71678,2302
4113956,AR,Harrison,36.22979,-93.10768,13138
4113994,AR,Hartford,35.02288,-94.38133,643
4114001,AR,Hartman,35.43258,-93.61547,530
4114047,AR,Haskell,34.50148,-92.63655,4480
4114074,AR,Hatfield,34.48566,-94.37855,403
4114104,AR,Havana,35.1112,-93.52963,368
4114166,AR,Haynes,34.89093,-90.79206,136
4114220,AR,Hazen,34.78093,-91.58097,1404
4114225,AR,Heber Springs,35.49147,-92.03126,7156
4114243,AR,Hector,35.4673,-92.97489,452
4114272,AR,Helena,34.52955,-90.59177,5548
4114368,AR,Hensley,34.50537,-92.2057,139
4114413,AR,Hermitage,33.4465,-92.17403,804
4114553,AR,Hickory Ridge,35.39731,-90.99651,261
4114620,AR,Higden,35.57341,-92.20321,117
4114635,AR,Higginson,35.19481,-91.71264,653
4114673,AR,Highland,36.2759,-91.52403,1054
4114693,AR,Highfill,36.26147,-94.35771,632
4114802,AR,Hindsville,36.14424,-93.86214,61
4114830,AR,Hiwasse,36.43174,-94.33382,497
4114930,AR,Holiday Island,36.48535,-93.73214,2373
4114945,AR,Holland,35.17147,-92.27376,546
4114992,AR,Holly Grove,34.59593,-91.19984,546
4115181,AR,Hope,33.66706,-93.59157,9891
4115281,AR,Horatio,33.93845,-94.35715,1058
4115334,AR,Horseshoe Bend,36.22923,-91.76431,2092
4115352,AR,Horseshoe Lake,34.91343,-90.30732,278
4115412,AR,Hot Springs,34.5037,-93.05518,35635
4115429,AR,Hot Springs Village,34.67204,-92.99879,12807
4115450,AR,Houston,35.03342,-92.69461,169
4115508,AR,Hoxie,36.05035,-90.97512,2680
4115578,AR,Hughes,34.94926,-90.47149,1323
4115608,AR,Humnoke,34.54148,-91.75708,281
4115613,AR,Humphrey,34.42204,-91.70624,524
4115634,AR,Hunter,35.05287,-91.12623,98
4115654,AR,Huntington,35.08232,-94.26327,626
4115658,AR,Huntsville,36.08619,-93.7413,2378
4115759,AR,Huttig,33.03957,-92.18264,564
4115796,AR,Imboden,36.20257,-91.17457,640
4116311,AR,Jacksonport,35.64175,-91.30957,203
4116315,AR,Jacksonville,34.8662,-92.11015,28643
4116400,AR,Jasper,36.00813,-93.18657,449
4116494,AR,Jennette,35.16648,-90.40454,110
4116519,AR,Jericho,35.28592,-90.22704,113
4116526,AR,Jerome,33.39956,-91.47012,39
4116660,AR,Johnson,36.13286,-94.16548,3634
4116746,AR,Joiner,35.50786,-90.14704,540
4116816,AR,Jones Mills,34.43759,-92.88767,90
4116834,AR,Jonesboro,35.8423,-90.70428,73907
4116896,AR,Judsonia,35.27009,-91.63986,2027
4116918,AR,Junction City,33.01625,-92.72432,547
4117286,AR,Keiser,35.67452,-90.09981,704
4117358,AR,Kensett,35.23175,-91.66764,1651
4117378,AR,Keo,34.60287,-92.00903,259
4117417,AR,Kibler,35.43037,-94.2316,943
4117552,AR,Kingsland,33.85844,-92.29404,420
4117585,AR,Kirby,34.25038,-93.6413,786
4117643,AR,Knobel,36.32006,-90.60206,269
4117661,AR,Knoxville,35.38203,-93.36435,746
4117725,AR,La Grange,34.65649,-90.73289,89
4117784,AR,Lafe,36.20423,-90.514,461
4117869,AR,Lake City,35.81619,-90.43427,2324
4117942,AR,Lake Hamilton,34.42453,-93.09518,2135
4118121,AR,Lake Village,33.32873,-91.28178,2575
4118196,AR,Lakeview,36.36868,-92.54544,726
4118197,AR,Lakeview,34.41677,-90.80094,443
4118223,AR,Lamar,35.44064,-93.38796,1668
4118277,AR,Landmark,34.6112,-92.3196,3555
4118450,AR,Lavaca,35.3362,-94.17326,2404
4118507,AR,Leachville,35.93591,-90.25788,1868
4118513,AR,Lead Hill,36.41979,-92.91489,274
4118678,AR,Leola,34.16954,-92.59099,503
4118687,AR,Lepanto,35.61119,-90.32982,1834
4118695,AR,Leslie,35.83035,-92.55794,415
4118711,AR,Letona,35.36175,-91.82931,255
4118755,AR,Lewisville,33.35846,-93.57768,1181
4118826,AR,Lexa,34.59788,-90.75233,255
4118981,AR,Lincoln,35.94953,-94.42355,2431
4119245,AR,Little Flock,36.38591,-94.1352,2748
4119403,AR,Little Rock,34.74648,-92.28959,197992
4119512,AR,Lockesburg,33.96734,-94.16853,741
4119617,AR,London,35.32897,-93.25296,1046
4119817,AR,Lonoke,34.78398,-91.89986,4249
4119835,AR,Lonsdale,34.54454,-92.80822,95
4119864,AR,Lost Bridge Village,36.38841,-93.90686,434
4119911,AR,Louann,33.39096,-92.79183,154
4119972,AR,Lowell,36.25535,-94.13076,8549
4120104,AR,Luxora,35.75619,-89.92814,1102
4120117,AR,Lynn,36.00729,-91.25235,277
4120274,AR,Madison,35.01315,-90.72261,707
4120286,AR,Magazine,35.15092,-93.80687,823
4120302,AR,Magness,35.7023,-91.48041,202
4120315,AR,Magnet Cove,34.45426,-92.84461,5
4120323,AR,Magnolia,33.26707,-93.23933,11669
4120388,AR,Malvern,34.36231,-92.81295,10928
4120398,AR,Mammoth Spring,36.49562,-91.5407,969
4120426,AR,Manila,35.88007,-90.16704,3257
4120438,AR,Mansfield,35.05954,-94.25271,1096
4120508,AR,Marianna,34.77371,-90.75761,3766
4120519,AR,Marie,35.61036,-90.08092,79
4120524,AR,Marion,35.21453,-90.19648,12292
4120544,AR,Marked Tree,35.53286,-90.42066,2501
4120581,AR,Marmaduke,36.18701,-90.38316,1216
4120611,AR,Marshall,35.90896,-92.63127,1300
4120684,AR,Marvell,34.55566,-90.91289,1047
4120792,AR,Maumelle,34.86676,-92.40432,17931
4120843,AR,Mayflower,34.95703,-92.42738,2431
4120855,AR,Maynard,36.41979,-90.89734,417
4120865,AR,Maysville,36.40369,-94.60189,130
4120886,AR,McAlmont,34.80842,-92.18181,1873
4120918,AR,McCaskill,33.91678,-93.64157,94
4120981,AR,McCrory,35.2562,-91.20012,1601
4121013,AR,McDougal,36.44006,-90.39149,175
4121052,AR,McGehee,33.629,-91.39956,3919
4121158,AR,McNab,33.66123,-93.83268,66
4121166,AR,McNeil,33.3479,-93.20989,497
4121185,AR,McRae,35.11286,-91.82236,680
4121256,AR,Melbourne,36.05951,-91.90848,1779
4121297,AR,Mena,34.58622,-94.23966,5653
4121315,AR,Menifee,35.14842,-92.55405,305
4121426,AR,Midland,35.09315,-94.35327,321
4121436,AR,Midway,36.38534,-92.46183,1084
4121438,AR,Midway,34.25426,-92.96351,388
4121792,AR,Mineral Springs,33.87512,-93.9138,1161
4121819,AR,Minturn,35.97452,-91.02762,103
4121899,AR,Mitchellville,33.90566,-91.49901,332
4121954,AR,Monette,35.89063,-90.34427,1527
4122015,AR,Monticello,33.629,-91.79096,9820
4122029,AR,Montrose,33.29762,-91.49373,335
4122092,AR,Moorefield,35.76841,-91.57041,137
4122203,AR,Moro,34.7951,-90.99123,197
4122218,AR,Morrilton,35.15092,-92.74405,6738
4122254,AR,Morrison Bluff,35.38786,-93.52852,62
4122466,AR,Mount Ida,34.55676,-93.63408,1025
4122657,AR,Mount Pleasant,35.96174,-91.7557,403
4122766,AR,Mount Vernon,35.22647,-92.12404,148
4122962,AR,Mountain Pine,34.57203,-93.17324,778
4122986,AR,Mountain View,35.86841,-92.11765,2837
4123018,AR,Mountainburg,35.63564,-94.16743,619
4123037,AR,Mountain Home,36.33534,-92.38516,12330
4123120,AR,Mulberry,35.50064,-94.05159,1634
4123162,AR,Murfreesboro,34.06233,-93.6899,1580
4123271,AR,Nashville,33.94567,-93.84713,4479
4123296,AR,Natural Steps,34.86203,-92.47544,426
4123473,AR,New Blaine,35.28953,-93.42018,174
4123492,AR,New Edinburg,33.75733,-92.23848,127
4123800,AR,Newark,35.70174,-91.44152,1177
4123830,AR,Newport,35.6048,-91.2818,7767
4123905,AR,Nimmons,36.30673,-90.09454,65
4123970,AR,Norfork,36.20951,-92.28432,499
4123981,AR,Norman,34.45537,-93.68149,359
4123988,AR,Norphlet,33.31596,-92.66293,824
4124039,AR,North Crossett,33.16568,-91.94152,3119
4124112,AR,North Little Rock,34.76954,-92.26709,66504
4124304,AR,O'Kean,36.16923,-90.81428,188
4124437,AR,Oak Grove Heights,36.1209,-90.51066,991
4124545,AR,Oakgrove,36.45618,-93.43657,238
4124548,AR,Oakhaven,33.72928,-93.62073,62
4124630,AR,Oden,34.61899,-93.77686,220
4124649,AR,Ogden,33.58262,-94.04269,171
4124654,AR,Oil Trough,35.63091,-91.46041,260
4124667,AR,Okolona,33.99733,-93.33795,143
4124671,AR,Ola,35.03231,-93.22323,1250
4124911,AR,Omaha,36.45229,-93.18851,171
4124966,AR,Oppelo,35.1012,-92.76767,766
4125027,AR,Osceola,35.70508,-89.96953,7233
4125168,AR,Oxford,36.22118,-91.92932,647
4125176,AR,Ozan,33.84789,-93.71907,83
4125181,AR,Ozark,35.48703,-93.8277,3590
4125265,AR,Palestine,34.97232,-90.90262,623
4125312,AR,Pangburn,35.42675,-91.83681,602
4125388,AR,Paragould,36.0584,-90.49733,27900
4125402,AR,Paris,35.29203,-93.72992,3443
4125450,AR,Parkdale,33.12151,-91.54568,265
4125487,AR,Parkin,35.26342,-90.57122,1105
4125583,AR,Patmos,33.51179,-93.56629,62
4125599,AR,Patterson,35.25675,-91.23513,414
4125668,AR,Pea Ridge,33.92066,-91.33679,2879
4125681,AR,Pea Ridge,36.45396,-94.1152,5242
4125713,AR,Peach Orchard,36.27868,-90.66289,127
4125843,AR,Perla,34.36454,-92.77156,241
4125851,AR,Perry,35.04759,-92.79406,266
4125874,AR,Perrytown,33.6965,-93.53712,266
4125875,AR,Perryville,35.00481,-92.80267,1432
4126105,AR,Piggott,36.38284,-90.19065,3655
4126224,AR,Pindall,36.06619,-92.88128,106
4126226,AR,Pine Bluff,34.22843,-92.0032,44772
4126409,AR,Pineville,36.16285,-92.1071,230
4126416,AR,Piney,34.50314,-93.12602,4699
4126548,AR,Plainview,34.98954,-93.2974,598
4126769,AR,Pleasant Plains,35.55008,-91.62625,348
4126911,AR,Plumerville,35.16008,-92.64072,805
4126923,AR,Pocahontas,36.26146,-90.97123,6438
4127139,AR,Portia,36.08646,-91.06735,420
4127143,AR,Portland,33.2379,-91.51151,412
4127256,AR,Pottsville,35.24814,-93.04906,3082
4127308,AR,Poyen,34.32426,-92.63988,291
4127314,AR,Powhatan,36.08229,-91.11846,69
4127332,AR,Prairie Creek,36.34202,-94.06187,2066
4127359,AR,Prairie Grove,35.97591,-94.31771,5186
4127421,AR,Prattsville,34.31482,-92.55349,306
4127433,AR,Prescott,33.80261,-93.38101,3133
4127688,AR,Pyatt,36.2459,-92.84489,216
4127735,AR,Quitman,35.38425,-92.21571,742
4127899,AR,Ratcliff,35.30842,-93.88353,196
4127923,AR,Ravenden,36.2334,-91.2518,450
4127924,AR,Ravenden Springs,36.31645,-91.22263,118
4127961,AR,Reader,33.75205,-93.10517,66
4127973,AR,Rector,36.26312,-90.2926,1840
4128103,AR,Redfield,34.4451,-92.1832,1541
4128125,AR,Reed,33.70205,-91.44318,157
4128259,AR,Reyno,36.36284,-90.75373,442
4128469,AR,Rison,33.95843,-92.19015,1282
4128764,AR,Rockport,34.38759,-92.82545,753
4128767,AR,Rockwell,34.46426,-93.13379,3780
4128889,AR,Roe,34.63343,-91.38513,104
4128894,AR,Rogers,36.33202,-94.11854,63159
4128927,AR,Roland,34.90064,-92.49821,746
4128965,AR,Rondo,34.65927,-90.82067,180
4129013,AR,Rose Bud,35.33147,-92.08126,482
4129114,AR,Rosston,33.59262,-93.27656,249
4129317,AR,Rudy,35.52786,-94.27077,60
4129376,AR,Russell,35.36258,-91.50763,216
4129397,AR,Russellville,35.27842,-93.13379,29166
4129429,AR,Rye,33.74622,-91.99792,146
4129507,AR,Saint Charles,34.37177,-91.13651,230
4129526,AR,Saint Francis,36.45339,-90.14538,250
4129576,AR,Saint Joe,36.03007,-92.80461,132
4129816,AR,Saint Paul,35.82425,-93.76408,113
4129962,AR,Salem,36.37118,-91.82265,1634
4129965,AR,Salem,34.62898,-92.55822,2607
4130357,AR,Scott,34.69648,-92.09626,72
4130418,AR,Scranton,35.3612,-93.53574,221
4130430,AR,Searcy,35.25064,-91.73625,24196
4130499,AR,Sedgwick,35.97785,-90.86401,146
4130703,AR,Shannon Hills,34.62009,-92.39543,3786
4130821,AR,Sheridan,34.30704,-92.40127,4812
4130853,AR,Sherrill,34.38537,-91.95069,77
4130982,AR,Shirley,35.65619,-92.31932,282
4131084,AR,Sidney,36.00313,-91.65986,185
4131116,AR,Siloam Springs,36.18814,-94.5405,16081
4131396,AR,Smackover,33.36485,-92.72488,1782
4131523,AR,Smithville,36.08035,-91.30374,72
4131740,AR,South Lead Hill,36.39479,-92.91073,102
4131812,AR,Southside,35.69841,-91.62347,2231
4131875,AR,Sparkman,33.91677,-92.84822,401
4132093,AR,Springdale,36.18674,-94.12881,77859
4132127,AR,Springtown,36.26091,-94.42327,91
4132194,AR,Stamps,33.3654,-93.49518,1551
4132227,AR,Star City,33.94288,-91.84347,2180
4132285,AR,Staves,34.03927,-92.27737,116
4132344,AR,Stephens,33.41123,-93.06961,827
4132548,AR,Strawberry,35.96757,-91.32124,290
4132582,AR,Strong,33.10763,-92.33486,558
4132625,AR,Stuttgart,34.50037,-91.55263,9056
4132643,AR,Subiaco,35.29287,-93.63464,562
4132650,AR,Success,36.45451,-90.72151,140
4132758,AR,Sulphur Rock,35.75119,-91.50069,457
4132771,AR,Sulphur Springs,36.48341,-94.45855,526
4132772,AR,Sulphur Springs,34.18065,-92.12348,1101
4132814,AR,Summit,36.25229,-92.69072,579
4132873,AR,Sunset,35.22176,-90.20565,189
4132874,AR,Sunset,35.81036,-94.01326,329
4132976,AR,Sweet Home,34.68648,-92.24237,849
4133024,AR,Swifton,35.82174,-91.12846,756
4133234,AR,Taylor,33.10041,-93.46101,545
4133367,AR,Texarkana,33.44179,-94.03769,30353
4133574,AR,Tillar,33.71233,-91.4529,222
4133615,AR,Tinsman,33.62983,-92.35515,53
4133630,AR,Toad Suck,35.07564,-92.55988,288
4133652,AR,Tollette,33.81984,-93.89435,232
4133707,AR,Tontitown,36.17786,-94.23354,2811
4133806,AR,Traskwood,34.44926,-92.65405,543
4133933,AR,Trumann,35.67369,-90.50733,7145
4133971,AR,Tuckerman,35.73063,-91.19846,1759
4133992,AR,Tull,34.44787,-92.57627,450
4133998,AR,Tumbling Shoals,35.54202,-91.96737,978
4134010,AR,Tupelo,35.39314,-91.23068,170
4134132,AR,Turrell,35.37981,-90.25787,575
4134166,AR,Twin Groves,35.31942,-92.41545,341
4134232,AR,Tyronza,35.49008,-90.35871,744
4134246,AR,Ulm,34.57593,-91.46068,164
4134657,AR,Valley Springs,36.15757,-92.99295,184
4134716,AR,Van Buren,35.43676,-94.34827,23081
4134734,AR,Vandervoort,34.3815,-94.36577,85
4134837,AR,Victoria,35.75674,-90.05592,35
4134871,AR,Vilonia,35.08398,-92.20793,4439
4134888,AR,Viola,36.39673,-91.98265,337
4134923,AR,Wabbaseka,34.36093,-91.79597,234
4134992,AR,Waldenburg,35.56536,-90.93373,60
4134993,AR,Waldo,33.35151,-93.29573,1301
4135004,AR,Waldron,34.89843,-94.09076,3442
4135205,AR,Walnut Ridge,36.0684,-90.95595,4673
4135279,AR,Ward,35.03036,-91.95042,4704
4135349,AR,Warren,33.61261,-92.06458,5804
4135386,AR,Washington,33.77401,-93.68268,176
4135477,AR,Watson,33.8951,-91.25623,193
4135644,AR,Weldon,35.44536,-91.23152,71
4135648,AR,Weiner,35.62036,-90.89845,688
4135746,AR,West Crossett,33.14096,-91.99402,1256
4135763,AR,West Fork,35.92425,-94.18854,2543
4135840,AR,West Helena,34.55066,-90.64177,7679
4135865,AR,West Memphis,35.14648,-90.18454,25052
4135885,AR,West Point,35.20703,-91.6143,185
4135950,AR,Western Grove,36.10091,-92.95378,364
4136045,AR,Wheatley,34.91287,-91.11012,328
4136068,AR,Whelen Springs,33.83094,-93.12628,89
4136153,AR,White Hall,34.27399,-92.09098,5180
4136413,AR,Wickes,34.30317,-94.33827,734
4136423,AR,Widener,35.02343,-90.68483,252
4136430,AR,Wiederkehr Village,35.47314,-93.76464,37
4136624,AR,Williford,36.25285,-91.35597,73
4136637,AR,Willisville,33.51706,-93.29823,145
4136679,AR,Wilmar,33.629,-91.93152,508
4136688,AR,Wilmot,33.05735,-91.57345,518
4136692,AR,Wilson,35.56814,-90.04203,871
4136693,AR,Wilson,35.21036,-92.92961,839
4136764,AR,Wilton,33.74123,-94.14825,355
4136771,AR,Winchester,33.77455,-91.47457,166
4136831,AR,Winslow,35.80091,-94.13493,421
4136860,AR,Winthrop,33.83178,-94.35465,182
4137082,AR,Woodson,34.52926,-92.21098,403
4137113,AR,Wooster,35.20203,-92.45599,999
4137171,AR,Wrightsville,34.60232,-92.21681,2260
4137215,AR,Wynne,35.22453,-90.78678,8193
4137252,AR,Yarborough Landing,33.72068,-94.01825,487
4137291,AR,Yellville,36.22618,-92.68489,1169
4137377,AR,Zinc,36.28535,-92.91434,104
4137457,DC,Adams Morgan,38.9215,-77.0422,15830
4137775,DC,Bloomingdale,38.91678,-77.01137,4980
4138011,DC,Chevy Chase,38.981,-77.083,9545
4140463,DC,Shaw,38.91206,-77.02137,17639
4140963,DC,Washington,38.89511,-77.03637,689545
4141246,DE,Arden,39.80928,-75.48659,450
4141248,DE,Ardencroft,39.80428,-75.49131,231
4141249,DE,Ardentown,39.80845,-75.48298,272
4141363,DE,Bear,39.62928,-75.65826,19371
4141402,DE,Bellefonte,39.766,-75.502,1193
4141435,DE,Bethany Beach,38.53956,-75.05518,1170
4141443,DE,Bethel,39.23428,-75.58159,192
4141444,DE,Bethel,38.57067,-75.61937,187
4141541,DE,Blades,38.63567,-75.60993,1354
4141582,DE,Bowers Beach,39.05983,-75.40131,185
4141632,DE,Bridgeville,38.74261,-75.60437,2256
4141674,DE,Brookside,39.66706,-75.72688,14353
4141748,DE,Camden,39.11345,-75.54187,3505
4141903,DE,Cheswold,39.21928,-75.58576,1415
4141974,DE,Claymont,39.80067,-75.45964,8253
4141982,DE,Clayton,39.29067,-75.63437,3123
4142137,DE,Dagsboro,38.54928,-75.24574,859
4142191,DE,Delaware City,39.57775,-75.58945,1741
4142226,DE,Delmar,38.45651,-75.57715,1730
4142256,DE,Dewey Beach,38.69289,-75.07462,371
4142290,DE,Dover,39.15817,-75.52437,37522
4142398,DE,Edgemoor,39.75011,-75.49964,5677
4142412,DE,Ellendale,38.80706,-75.4227,415
4142424,DE,Elsmere,39.73928,-75.59798,6146
4142477,DE,Farmington,38.86928,-75.57854,117
4142485,DE,Felton,39.00845,-75.57798,1402
4142495,DE,Fenwick Island,38.46233,-75.05129,417
4142601,DE,Frankford,38.51734,-75.23491,933
4142605,DE,Frederica,39.009,-75.46575,825
4142643,DE,Georgetown,38.69011,-75.38547,7051
4142683,DE,Glasgow,39.60483,-75.74521,14303
4142766,DE,Greenville,39.779,-75.59826,2326
4142770,DE,Greenwood,38.80706,-75.59132,1066
4142841,DE,Harrington,38.92372,-75.5777,3691
4142850,DE,Hartly,39.16872,-75.71326,71
4142895,DE,Henlopen Acres,38.72983,-75.08629,122
4142942,DE,Highland Acres,39.12095,-75.52187,3459
4142969,DE,Hockessin,39.78761,-75.6966,13527
4143057,DE,Houston,38.91761,-75.5052,391
4143218,DE,Kent Acres,39.13178,-75.52492,1890
4143230,DE,Kenton,39.22761,-75.66298,265
4143319,DE,Laurel,38.5565,-75.57131,4075
4143348,DE,Leipsic,39.24095,-75.51687,196
4143354,DE,Lewes,38.77456,-75.13935,3010
4143408,DE,Little Creek,39.16706,-75.44825,233
4143459,DE,Long Neck,38.62011,-75.15074,1980
4143506,DE,Magnolia,39.07122,-75.47603,234
4143637,DE,Middletown,39.44956,-75.71632,20372
4143658,DE,Milford,38.91261,-75.42797,10252
4143690,DE,Millsboro,38.5915,-75.2913,4216
4143696,DE,Millville,38.54956,-75.12324,590
4143698,DE,Milton,38.77761,-75.30991,2824
4143834,DE,New Castle,39.65948,-75.56359,5382
4143861,DE,Newark,39.68372,-75.74966,33817
4143871,DE,Newport,39.71372,-75.60937,1058
4143897,DE,North Star,39.76122,-75.7191,7980
4143946,DE,Odessa,39.45733,-75.66132,374
4144100,DE,Pike Creek,39.73095,-75.7041,7898
4144101,DE,Pike Creek Valley,39.73622,-75.69827,11217
4144284,DE,Rehoboth Beach,38.72095,-75.07601,1458
4144338,DE,Riverview,39.0265,-75.51076,2456
4144366,DE,Rodney Village,39.13206,-75.53242,1487
4144600,DE,Seaford,38.64123,-75.61104,7586
4144620,DE,Selbyville,38.46039,-75.22074,2397
4144743,DE,Slaughter Beach,38.91289,-75.30408,230
4144764,DE,Smyrna,39.29983,-75.60465,11319
4144787,DE,South Bethany,38.5165,-75.05296,497
4145047,DE,Townsend,39.39511,-75.6916,2177
4145151,DE,Viola,39.04289,-75.57187,170
4145381,DE,Wilmington,39.74595,-75.54659,71948
4145395,DE,Wilmington Manor,39.68678,-75.58437,7889
4145471,DE,Woodside,39.0715,-75.56826,196
4145483,DE,Wyoming,39.11817,-75.55881,1465
4145571,FL,Aberdeen,26.55063,-80.14866,2672
4145719,FL,Alachua,29.75163,-82.42483,9757
4145765,FL,Alford,30.6938,-85.39215,467
4145805,FL,Allapattah,25.81454,-80.22394,54289
4145837,FL,Allentown,30.76269,-87.04219,894
4145941,FL,Altamonte Springs,28.66111,-81.36562,43159
4145945,FL,Altha,30.57047,-85.12714,529
4145953,FL,Altoona,28.96582,-81.64869,89
4145956,FL,Alturas,27.87169,-81.71508,4185
4145959,FL,Alva,26.71562,-81.61008,2596
4146039,FL,Andover,25.96843,-80.21283,9877
4146051,FL,Andrews,29.53293,-82.88169,798
4146082,FL,Anna Maria,27.53115,-82.73343,1669
4146148,FL,Apalachicola,29.726,-84.9856,2281
4146161,FL,Apollo Beach,27.77308,-82.40759,14055
4146166,FL,Apopka,28.67617,-81.51186,48382
4146206,FL,Arcadia,27.21588,-81.85842,7851
4146219,FL,Archer,29.52997,-82.519,1173
4146245,FL,Aripeka,28.43222,-82.66427,308
4146302,FL,Asbury Lake,30.04913,-81.82149,8700
4146338,FL,Astatula,28.70972,-81.73285,1917
4146339,FL,Astor,29.16248,-81.52535,1556
4146354,FL,Atlantic Beach,30.33441,-81.3987,13193
4146372,FL,Atlantis,26.5909,-80.10088,2106
4146389,FL,Auburndale,28.0653,-81.78869,15035
4146395,FL,Aucilla,30.47993,-83.75433,100
4146429,FL,Aventura,25.95648,-80.13921,37649
4146440,FL,Avon Park,27.59587,-81.50619,10086
4146464,FL,Azalea Park,28.54111,-81.30062,12556
4146481,FL,Babson Park,27.83197,-81.5223,1356
4146494,FL,Bagdad,30.5988,-87.03223,3761
4146564,FL,Bal Harbour,25.89176,-80.12699,2877
4146570,FL,Baldwin,30.30274,-81.97539,1453
4146588,FL,Balm,27.75947,-82.2612,1457
4146723,FL,Bartow,27.89641,-81.84314,18972
4146736,FL,Bascom,30.92797,-85.11854,118
4146823,FL,Bay Harbor Islands,25.88759,-80.13116,6036
4146830,FL,Bay Hill,28.46806,-81.51618,4884
4146844,FL,Bay Lake,28.38862,-81.56591,50
4146855,FL,Bay Pines,27.81419,-82.77816,2931
4146901,FL,Bayonet Point,28.32667,-82.68343,23467
4146934,FL,Bayshore Gardens,27.42532,-82.59038,16323
4146950,FL,Bayport,28.55068,-82.64588,43
4146984,FL,Beacon Square,28.20862,-82.75538,7224
4147145,FL,Bee Ridge,27.28394,-82.48065,9598
4147193,FL,Bell,29.75551,-82.86262,464
4147241,FL,Belle Glade,26.68451,-80.66756,18251
4147242,FL,Belle Glade Camp,26.65757,-80.68284,1167
4147247,FL,Belle Isle,28.45834,-81.35924,6689
4147255,FL,Belleair,27.93585,-82.80621,3992
4147257,FL,Belleair Beach,27.92308,-82.84316,1609
4147258,FL,Belleair Bluffs,27.92141,-82.81705,2095
4147262,FL,Belleair Shores,27.91669,-82.84538,109
4147263,FL,Belleview,29.05526,-82.06231,4765
4147290,FL,Bellview,30.46159,-87.31497,23355
4147390,FL,Berrydale,30.89935,-87.01385,441
4147580,FL,Beverly Beach,29.5147,-81.1445,358
4147581,FL,Beverly Hills,28.91692,-82.45815,8445
4147679,FL,Big Coppitt Key,24.59653,-81.66009,2458
4147801,FL,Big Pine Key,24.66987,-81.35397,4252
4147988,FL,Biscayne Park,25.8826,-80.1806,3216
4148012,FL,Bithlo,28.55472,-81.10645,8268
4148053,FL,Black Diamond,28.91248,-82.48593,1101
4148207,FL,Bloomingdale,27.89364,-82.24037,22711
4148237,FL,Blountstown,30.44379,-85.04744,2497
4148399,FL,Boca Del Mar,26.34508,-80.14671,24244
4148410,FL,Boca Pointe,26.33313,-80.15949,4073
4148411,FL,Boca Raton,26.35869,-80.0831,93235
4148504,FL,Bokeelia,26.70563,-82.15898,1780
4148526,FL,Bonifay,30.79186,-85.67965,2726
4148533,FL,Bonita Springs,26.33981,-81.7787,51704
4148659,FL,Bowling Green,27.63837,-81.82397,2919
4148674,FL,Boyette,27.81753,-82.22259,6518
4148677,FL,Boynton Beach,26.52535,-80.06643,73966
4148708,FL,Bradenton,27.49893,-82.57482,54437
4148710,FL,Bradenton Beach,27.46761,-82.6983,1171
4148747,FL,Bradley Junction,27.79531,-81.98036,686
4148757,FL,Brandon,27.9378,-82.28592,103483
4148776,FL,Branford,29.95912,-82.92818,721
4148803,FL,Brent,30.46881,-87.23608,21804
4148838,FL,Brewster (historical),27.75281,-81.97953,3
4148910,FL,Briny Breezes,26.50841,-80.05087,603
4148912,FL,Bristol,30.43247,-84.97702,976
4148944,FL,Broadview Park,26.09953,-80.20866,7125
4148957,FL,Bronson,29.44774,-82.64233,1110
4148962,FL,Brooker,29.88885,-82.33261,332
4148975,FL,Brookridge,28.5511,-82.49204,4420
4148986,FL,Brooksville,28.55554,-82.38991,7854
4149010,FL,Broward Estates,26.12564,-80.19338,3777
4149075,FL,Brownsdale,30.88241,-87.22553,471
4149077,FL,Brownsville,25.82176,-80.24116,15313
4149226,FL,Buckhead Ridge,27.13033,-80.89367,1450
4149241,FL,Buckingham,26.67507,-81.73203,4036
4149269,FL,Buenaventura Lakes,28.33584,-81.35313,26079
4149342,FL,Bunche Park,25.92065,-80.23699,4080
4149363,FL,Bunnell,29.46609,-81.25784,2828
4149412,FL,Burnt Store Marina,26.76507,-82.05092,1793
4149433,FL,Bushnell,28.66499,-82.11286,2995
4149453,FL,Butler Beach,29.7983,-81.26701,4951
4149631,FL,Callahan,30.56218,-81.83066,1185
4149635,FL,Callaway,30.15298,-85.56993,14405
4149845,FL,Campbell,28.2589,-81.45646,2479
4149898,FL,Canal Point,26.85923,-80.63367,367
4149918,FL,Campbellton,30.94935,-85.40215,221
4149956,FL,Cantonment,30.60853,-87.33998,26493
4149959,FL,Cape Canaveral,28.40584,-80.60477,9912
4149962,FL,Cape Coral,26.56285,-81.94953,175229
4150010,FL,Captiva,26.52202,-82.18926,583
4150066,FL,Carol City,25.94065,-80.2456,63031
4150103,FL,Carrabelle,29.85326,-84.66435,2729
4150115,FL,Carrollwood,28.05002,-82.49287,33365
4150118,FL,Carrollwood Village,28.06752,-82.52093,40949
4150159,FL,Carver Ranches,25.98842,-80.19227,4406
4150168,FL,Caryville,30.77324,-85.8141,280
4150190,FL,Casselberry,28.67778,-81.32785,27056
4150340,FL,Cedar Grove,30.17103,-85.6252,3397
4150356,FL,Cedar Key,29.13858,-83.03512,703
4150394,FL,Celebration,28.32529,-81.53313,7427
4150411,FL,Center Hill,28.64999,-81.99258,1194
4150517,FL,Century,30.97324,-87.26386,1762
4150614,FL,Charleston Park,26.70562,-81.58036,218
4150632,FL,Charlotte Harbor,26.95839,-82.06703,3714
4150637,FL,Charlotte Park,26.91006,-82.05398,2325
4150673,FL,Chattahoochee,30.70546,-84.84574,3144
4150727,FL,Cheval,28.14862,-82.51454,10702
4150733,FL,Chiefland,29.47496,-82.85984,2218
4150769,FL,Chipley,30.78186,-85.53854,3565
4150879,FL,Chokoloskee,25.81288,-81.36202,359
4150880,FL,Christmas,28.53639,-81.01756,1146
4150904,FL,Chumuckla,30.77658,-87.23719,850
4150914,FL,Chuluota,28.64194,-81.1234,2483
4151120,FL,Cinco Bayou,30.42255,-86.60926,420
4151132,FL,Citra,29.41192,-82.10982,5732
4151153,FL,Citrus Hills,28.88831,-82.4326,7470
4151157,FL,Citrus Park,28.07835,-82.56982,24252
4151162,FL,Citrus Ridge,28.33385,-81.64232,13285
4151163,FL,Citrus Springs,28.99748,-82.47065,8622
4151207,FL,Clarcona,28.61278,-81.49868,2990
4151316,FL,Clearwater,27.96585,-82.8001,113003
4151352,FL,Clermont,28.54944,-81.77285,32390
4151366,FL,Clewiston,26.75423,-80.93368,7505
4151385,FL,Cloud Lake,26.67618,-80.07393,135
4151416,FL,Cleveland,26.96173,-81.98398,2990
4151426,FL,Cobbtown,30.88296,-87.11969,67
4151440,FL,Cocoa,28.38612,-80.742,17711
4151441,FL,Cocoa Beach,28.32055,-80.60922,11595
4151455,FL,Coconut Creek,26.25175,-80.17894,59302
4151460,FL,Coconut Grove,25.7126,-80.25699,20076
4151509,FL,Coleman,28.79971,-82.07009,843
4151607,FL,Combee Settlement,28.05835,-81.90536,5577
4151745,FL,Conway,28.50278,-81.33062,13467
4151824,FL,Cooper City,26.05731,-80.27172,35364
4151871,FL,Coral Gables,25.72149,-80.26838,51117
4151909,FL,Coral Springs,26.27119,-80.2706,129485
4151921,FL,Coral Terrace,25.74593,-80.3045,24376
4152003,FL,Cortez,27.46921,-82.68621,4241
4152043,FL,Cottondale,30.79714,-85.3766,900
4152064,FL,Country Walk,25.63399,-80.43228,15997
4152093,FL,Country Club,25.94815,-80.317,47105
4152267,FL,Crawfordville,30.17604,-84.37518,3702
4152290,FL,Crescent Beach,29.76886,-81.25368,931
4152291,FL,Crescent City,29.43025,-81.51063,1540
4152311,FL,Crestview,30.76213,-86.57051,23270
4152360,FL,Crooked Lake Park,27.82919,-81.58397,1722
4152395,FL,Cross City,29.63465,-83.12694,1707
4152472,FL,Crystal Lake,28.03558,-81.90841,5514
4152487,FL,Crystal River,28.90248,-82.5926,3089
4152498,FL,Crystal Springs,28.1814,-82.15758,1327
4152513,FL,Cudjoe Key,24.67153,-81.49842,1763
4152564,FL,Cutler,25.6151,-80.31061,18117
4152574,FL,Cutler Ridge,25.58066,-80.34672,26831
4152628,FL,Cypress Gardens,27.99391,-81.69008,8917
4152639,FL,Cypress Lake,26.53813,-81.89925,11846
4152671,FL,Cypress Quarters,27.25199,-80.81395,1215
4152695,FL,Dade City,28.36472,-82.19592,6955
4152772,FL,Dania Beach,26.05231,-80.14393,31446
4152805,FL,Davenport,28.1614,-81.60174,3534
4152820,FL,Davie,26.06287,-80.2331,100882
4152865,FL,Day,30.19411,-83.29125,116
4152872,FL,Daytona Beach,29.21081,-81.02283,72647
4152881,FL,Daytona Beach Shores,29.17609,-80.98283,4389
4152888,FL,DeFuniak Springs,30.72102,-86.11522,5795
4152890,FL,DeLand,29.02832,-81.30312,30195
4152898,FL,De Leon Springs,29.11989,-81.35286,2614
4152926,FL,DeBary,28.88305,-81.30868,19998
4153071,FL,Deerfield Beach,26.31841,-80.09977,79768
4153132,FL,Delray Beach,26.46146,-80.07282,66255
4153146,FL,Deltona,28.90054,-81.26367,88474
4153186,FL,Desoto Lakes,27.37143,-82.48982,3646
4153188,FL,Destin,30.39353,-86.49578,13523
4153367,FL,Doctor Phillips,28.44945,-81.49229,10981
4153471,FL,Doral,25.81954,-80.35533,75874
4153553,FL,Dover,27.99419,-82.21953,3702
4153693,FL,Duck Key,24.77097,-80.91201,621
4153757,FL,Dundee,28.02252,-81.61924,4090
4153759,FL,Dunedin,28.0199,-82.77323,36164
4153775,FL,Dunes Road,26.48452,-80.11838,432
4153790,FL,Dunnellon,29.04914,-82.46093,1777
4153884,FL,Eagle Lake,27.97836,-81.75647,2474
4154008,FL,East Lake,28.11085,-82.69482,30962
4154023,FL,East Milton,30.61519,-87.02163,11074
4154031,FL,East Naples,26.13842,-81.76648,22951
4154037,FL,East Palatka,29.6583,-81.59841,1654
4154047,FL,East Pensacola Heights,30.42881,-87.17997,54104
4154051,FL,East Perrine,25.60872,-80.33894,7156
4154106,FL,Eastpoint,29.7366,-84.87852,2337
4154127,FL,Eatonville,28.61472,-81.38062,2271
4154157,FL,Ebro,30.44797,-85.8741,270
4154205,FL,Edgewater,28.98888,-80.90228,21566
4154216,FL,Edgewood,28.48612,-81.37229,2795
4154270,FL,Eglin Village,30.46298,-86.5394,7000
4154280,FL,Egypt Lake-Leto,28.01769,-82.50619,35282
4154299,FL,El Portal,25.85537,-80.1931,2491
4154336,FL,Elfers,28.21668,-82.72232,13986
4154367,FL,Ellenton,27.52171,-82.5276,4275
4154465,FL,Englewood,26.96201,-82.3526,14863
4154489,FL,Ensley,30.51881,-87.27275,20602
4154568,FL,Estero,26.43814,-81.80675,30799
4154578,FL,Esto,30.9874,-85.64604,354
4154606,FL,Eustis,28.85277,-81.68535,19986
4154657,FL,Everglades City,25.8601,-81.38036,379
4154769,FL,Fairview Shores,28.59111,-81.39424,10239
4154891,FL,Fanning Springs,29.59079,-82.92929,985
4154937,FL,Feather Sound,27.90079,-82.67349,3420
4154972,FL,Fellsmere,27.76781,-80.60144,5514
4155000,FL,Fern Park,28.64916,-81.35118,7704
4155006,FL,Fernandina Beach,30.66968,-81.46259,12339
4155011,FL,Ferndale,28.62194,-81.70341,472
4155017,FL,Ferry Pass,30.5102,-87.21247,28921
4155033,FL,Fidelis,30.93629,-87.02413,156
4155430,FL,Fish Hawk,27.85058,-82.21092,14087
4155468,FL,Fisher Island,25.76093,-80.14005,132
4155502,FL,Five Points,30.20912,-82.63735,1265
4155529,FL,Flagami,25.76232,-80.31616,50834
4155533,FL,Flagler Beach,29.47498,-81.127,4869
4155594,FL,Fleming Island,30.0933,-81.71898,27126
4155623,FL,Floral City,28.74999,-82.29676,5217
4155669,FL,Florida City,25.44789,-80.47922,13085
4155726,FL,Florida Ridge,27.58031,-80.38672,18164
4155755,FL,Floridatown,30.582,-87.158,244
4155824,FL,Forest City,28.66678,-81.44334,13854
4155946,FL,Fort Green,27.61253,-81.94342,101
4155948,FL,Fort Green Springs,27.5917,-81.93925,231
4155966,FL,Fort Lauderdale,26.12231,-80.14338,178590
4155988,FL,Fort Meade,27.75225,-81.80175,5975
4155995,FL,Fort Myers,26.62168,-81.84059,74013
4155996,FL,Fort Myers Beach,26.45271,-81.95011,6983
4156006,FL,Fort Myers Shores,26.70924,-81.74592,5487
4156018,FL,Fort Pierce,27.44671,-80.32561,44484
4156042,FL,Fort Walton Beach,30.42059,-86.61707,21817
4156050,FL,Fort White,29.92329,-82.71373,566
4156091,FL,Fountainebleau,25.77288,-80.34783,59764
4156268,FL,Freeport,30.49825,-86.13605,2052
4156326,FL,Frostproof,27.74586,-81.53063,3134
4156331,FL,Fruit Cove,30.11107,-81.64176,29362
4156337,FL,Fruitland Park,28.86138,-81.90647,4483
4156340,FL,Fruitville,27.32977,-82.4576,13224
4156367,FL,Fuller Heights,27.90919,-81.99814,8758
4156370,FL,Fussels Corner,28.05419,-81.86064,5561
4156404,FL,Gainesville,29.65163,-82.32483,141085
4156462,FL,Gandy,27.8685,-82.61612,2031
4156501,FL,Garden Grove,28.48027,-82.43509,674
4156527,FL,Gardner,27.35171,-81.7998,463
4156601,FL,Gateway,26.57757,-81.75036,8401
4156657,FL,Geneva,28.73972,-81.11506,2940
4156746,FL,Gibsonia,28.11474,-81.97369,4571
4156748,FL,Gibsonton,27.85364,-82.38259,14234
4156752,FL,Gifford,27.67531,-80.40922,9590
4156824,FL,Gladeview,25.83926,-80.2356,11535
4156840,FL,Glen Ridge,26.66951,-80.07421,234
4156841,FL,Glen Saint Mary,30.27579,-82.16067,437
4156844,FL,Glencoe,29.02582,-80.972,2582
4156857,FL,Glenvar Heights,25.7076,-80.32561,16898
4156918,FL,Golden Beach,25.96509,-80.12227,972
4156920,FL,Golden Gate,26.18787,-81.69509,23961
4156931,FL,Golden Glades,25.91176,-80.20033,33145
4156959,FL,Goldenrod,28.61028,-81.28868,12039
4156961,FL,Golf,26.49868,-80.10865,252
4156964,FL,Golfview,26.68895,-80.11254,163
4156975,FL,Gonzalez,30.58158,-87.29136,13273
4157015,FL,Goodland,25.92482,-81.64564,267
4157092,FL,Gotha,28.52778,-81.52313,1915
4157095,FL,Goulding,30.44298,-87.22247,4102
4157097,FL,Goulds,25.56261,-80.38228,11446
4157193,FL,Graceville,30.95685,-85.5166,2222
4157237,FL,Grand Ridge,30.71291,-85.02328,872
4157427,FL,Green Cove Springs,29.99191,-81.67815,7277
4157467,FL,Greenacres City,26.62368,-80.12532,32963
4157500,FL,Greensboro,30.56961,-84.74527,605
4157505,FL,Greenville,30.46937,-83.63015,803
4157509,FL,Greenwood,30.87019,-85.16187,657
4157537,FL,Gretna,30.61714,-84.65991,1386
4157593,FL,Grove City,26.91423,-82.32704,1804
4157605,FL,Groveland,28.55805,-81.85119,11528
4157634,FL,Gulf Breeze,30.35714,-87.16386,6323
4157657,FL,Gulf Gate Estates,27.25173,-82.51471,10911
4157680,FL,Gulf Stream,26.49368,-80.05504,836
4157687,FL,Gulfport,27.74836,-82.70343,12322
4157774,FL,Gun Club Estates,26.67534,-80.10727,776
4157827,FL,Haines City,28.1145,-81.62009,22807
4157898,FL,Hallandale Beach,25.9812,-80.14838,39488
4157969,FL,Hampton,29.86441,-82.13094,488
4158032,FL,Harbor Bluffs,27.90947,-82.8276,2860
4158060,FL,Harbour Heights,26.99089,-82.00231,2987
4158091,FL,Harlem,26.73757,-80.9509,2658
4158094,FL,Harlem Heights,26.51619,-81.92787,1975
4158112,FL,Harold,30.65908,-86.88024,823
4158198,FL,Hastings,29.71802,-81.50813,632
4158224,FL,Havana,30.62381,-84.41463,1688
4158239,FL,Haverhill,26.69118,-80.12004,2025
4158256,FL,Hawthorne,29.59191,-82.08732,1492
4158257,FL,Hawthorne,28.76138,-81.87091,1475
4158296,FL,Heathrow,28.76333,-81.37225,5896
4158445,FL,Hernando,28.89998,-82.37454,9054
4158446,FL,Hernando Beach,28.46944,-82.65927,2299
4158476,FL,Hialeah,25.8576,-80.27811,237069
4158482,FL,Hialeah Gardens,25.8651,-80.3245,23926
4158595,FL,High Springs,29.82691,-82.59678,5831
4158599,FL,Highland Beach,26.39952,-80.0656,3729
4158604,FL,Highland City,27.9653,-81.87786,10834
4158618,FL,Highland Park,27.86503,-81.56174,249
4158662,FL,Hiland Park,30.20103,-85.62687,1105
4158668,FL,Hill 'n Dale,28.51972,-82.29926,1934
4158684,FL,Hillcrest Heights,27.82114,-81.53063,254
4158693,FL,Hilliard,30.69107,-81.91733,3154
4158700,FL,Hillsboro Beach,26.29397,-80.07893,2004
4158758,FL,Hobe Sound,27.0595,-80.13643,11521
4158844,FL,Holden Heights,28.49667,-81.38785,3679
4158865,FL,Holiday,28.18779,-82.73955,22403
4158891,FL,Holley,30.44686,-86.90691,1630
4158914,FL,Holly Hill,29.24359,-81.03756,11943
4158928,FL,Hollywood,26.0112,-80.14949,149728
4158966,FL,Holmes Beach,27.49532,-82.71093,4199
4159047,FL,Homeland,27.81781,-81.82453,366
4159050,FL,Homestead,25.46872,-80.47756,80737
4159071,FL,Homosassa,28.78137,-82.6151,2578
4159077,FL,Homosassa Springs,28.80359,-82.57593,13791
4159207,FL,Horseshoe Beach,29.44135,-83.28736,168
4159247,FL,Hosford,30.38705,-84.79943,650
4159315,FL,Howey-in-the-Hills,28.71694,-81.77341,1098
4159335,FL,Hudson,28.36445,-82.69343,12158
4159416,FL,Hunters Creek,28.36056,-81.42229,14321
4159484,FL,Hypoluxo,26.56646,-80.05337,2719
4159553,FL,Immokalee,26.41869,-81.4173,24154
4159575,FL,Indialantic,28.08946,-80.56561,2837
4159603,FL,Indian Creek Village,25.87815,-80.13616,33
4159608,FL,Indian Harbour Beach,28.1489,-80.58839,8471
4159659,FL,Indian River Estates,27.36449,-80.30977,6220
4159672,FL,Indian River Shores,27.7167,-80.38422,4156
4159675,FL,Indian Rocks Beach,27.8753,-82.85122,4113
4159677,FL,Indian Shores,27.8628,-82.84844,1470
4159687,FL,Indiantown,27.02728,-80.48561,6083
4159702,FL,Inglis,29.03025,-82.66872,1311
4159765,FL,Interlachen,29.62421,-81.89256,1355
4159786,FL,Inverness,28.83582,-82.33037,7233
4159796,FL,Inwood,28.03697,-81.76508,6403
4159805,FL,Iona,26.52036,-81.96398,15369
4159839,FL,Islamorada,24.9243,-80.62784,7131
4159872,FL,Islandia,25.37817,-80.25255,18
4159873,FL,Isle of Normandy,25.85287,-80.13505,8841
4159882,FL,Istachatta,28.65999,-82.27759,116
4159896,FL,Ives Estates,25.96231,-80.17671,19525
4160021,FL,Jacksonville,30.33218,-81.65565,954614
4160023,FL,Jacksonville Beach,30.29469,-81.39314,23064
4160052,FL,Jacobs,30.89491,-85.39771,239
4160086,FL,Jan-Phyl Village,28.01474,-81.77175,5573
4160100,FL,Jasmine Estates,28.29306,-82.6901,18989
4160102,FL,Jasper,30.51827,-82.94819,4155
4160103,FL,Jay,30.95296,-87.15136,578
4160163,FL,Jennings,30.6041,-83.09792,870
4160171,FL,Jensen Beach,27.25449,-80.22977,11707
4160570,FL,June Park,28.07224,-80.68006,4094
4160604,FL,Juno Beach,26.87978,-80.05337,3474
4160609,FL,Juno Ridge,26.84812,-80.06226,718
4160610,FL,Jupiter,26.93422,-80.09421,62707
4160615,FL,Jupiter Inlet Beach Colony,26.94895,-80.07476,368
4160617,FL,Jupiter Island,27.03144,-80.10143,887
4160651,FL,Kathleen,28.12085,-82.02314,6332
4160705,FL,Kendale Lakes,25.70816,-80.407,56148
4160711,FL,Kendall,25.67927,-80.31727,80241
4160717,FL,Kendall Green,26.25397,-80.12393,3048
4160749,FL,Kenneth City,27.81558,-82.7201,5072
4160752,FL,Kensington Park,27.35949,-82.49649,3901
4160789,FL,Key Biscayne,25.69371,-80.16282,12990
4160792,FL,Key Colony Beach,24.72097,-81.01868,851
4160795,FL,Key Largo,25.08652,-80.44728,10433
4160812,FL,Key West,24.55524,-81.78163,25755
4160822,FL,Keystone,28.15585,-82.62121,24039
4160830,FL,Keystone Heights,29.78608,-82.03149,1433
4160932,FL,Kings Point,26.44535,-80.13977,12201
4160983,FL,Kissimmee,28.30468,-81.41667,69152
4161075,FL,LaBelle,26.76173,-81.43841,4753
4161079,FL,La Crosse,29.8433,-82.40483,378
4161110,FL,Lacoochee,28.46583,-82.17203,1714
4161118,FL,Lady Lake,28.91749,-81.92286,14717
4161141,FL,Laguna Beach,30.23965,-85.9241,3932
4161150,FL,Lake Alfred,28.09196,-81.72341,5475
4161161,FL,Lake Belvedere Estates,26.68923,-80.13338,3334
4161168,FL,Lake Buena Vista,28.39362,-81.53868,10
4161171,FL,Lake Butler,30.02274,-82.33956,1845
4161178,FL,Lake Butler,28.50167,-81.54091,15400
4161187,FL,Lake City,30.18968,-82.63929,12161
4161195,FL,Lake Clarke Shores,26.64534,-80.07588,3552
4161228,FL,Lake Forest,25.97759,-80.1831,5522
4161250,FL,Lake Hamilton,28.04446,-81.62785,1346
4161252,FL,Lake Harbor,26.69312,-80.81451,45
4161253,FL,Lake Hart,28.39278,-81.24062,542
4161254,FL,Lake Helen,28.98082,-81.23339,2687
4161283,FL,Lake Kathryn,29.01526,-81.49146,920
4161292,FL,Lake Lindsey Village,28.63444,-82.36236,71
4161293,FL,Lake Lindsey,28.63194,-82.36165,71
4161296,FL,Lake Lorraine,30.44159,-86.56523,7010
4161298,FL,Lake Lucerne,25.96509,-80.24144,9044
4161313,FL,Lake Magdalene,28.07418,-82.47176,28509
4161327,FL,Lake Panasoffkee,28.777,-82.12,3551
4161334,FL,Lake Park,26.80034,-80.06643,8538
4161344,FL,Lake Placid,27.35197,-81.32631,2164
4161352,FL,Lake Sarasota,27.29255,-82.4376,4679
4161373,FL,Lake Mary,28.75888,-81.31784,16021
4161400,FL,Lake Wales,27.90141,-81.58591,15541
4161422,FL,Lake Worth Beach,26.61708,-80.07231,37498
4161424,FL,Lake Worth Corridor,26.61649,-80.10102,20635
4161438,FL,Lakeland,28.03947,-81.9498,104401
4161444,FL,Lakeland Highlands,27.95975,-81.95008,11056
4161460,FL,Lakes by the Bay,25.57233,-80.32533,11422
4161461,FL,Lakeside,30.12996,-81.76815,30943
4161510,FL,Lakewood Park,27.54309,-80.40227,11323
4161523,FL,Lamont,30.37715,-83.81294,178
4161534,FL,Land O' Lakes,28.2189,-82.45759,31996
4161571,FL,Lantana,26.58674,-80.05199,11136
4161580,FL,Largo,27.90979,-82.78842,81000
4161616,FL,Lauderdale Lakes,26.16647,-80.20838,34796
4161624,FL,Lauderdale-by-the-Sea,26.19203,-80.09643,6460
4161625,FL,Lauderhill,26.14036,-80.21338,71579
4161659,FL,Laurel,27.14378,-82.46158,8171
4161662,FL,Laurel Hill,30.96574,-86.45967,582
4161685,FL,Lawtey,30.04413,-82.07177,719
4161692,FL,Layton,24.82425,-80.81496,190
4161695,FL,Lazy Lake,26.1562,-80.14477,26
4161705,FL,Lealman,27.82114,-82.67927,19879
4161733,FL,Lecanto,28.85165,-82.4876,5882
4161739,FL,Lee,30.41996,-83.30113,331
4161771,FL,Leesburg,28.81082,-81.87786,21993
4161785,FL,Lehigh Acres,26.62535,-81.6248,86784
4161797,FL,Leisure City,25.49539,-80.42922,26324
4161807,FL,Lely,26.10065,-81.72842,3451
4161810,FL,Lely Resort,26.08093,-81.69786,4646
4161855,FL,Lemon Grove,27.55837,-81.67814,657
4161957,FL,Lighthouse Point,26.27564,-80.08727,11104
4161994,FL,Limestone,27.3656,-81.89897,132
4162004,FL,Limestone Creek,26.94284,-80.14115,1014
4162071,FL,Lisbon,28.881,-81.783,260
4162461,FL,Live Oak,30.29495,-82.98402,6931
4162518,FL,Lloyd,30.47775,-84.02279,215
4162532,FL,Lochmoor Waterway Estates,26.64424,-81.90981,4204
4162539,FL,Lockhart,28.61944,-81.44257,13060
4162776,FL,Longboat Key,27.41254,-82.65899,7266
4162783,FL,Longwood,28.70305,-81.3384,14085
4162856,FL,Loughman,28.24196,-81.56674,2680
4162911,FL,Lower Grand Lagoon,30.14409,-85.75076,3881
4162948,FL,Loxahatchee Groves,26.68368,-80.27977,3397
4163033,FL,Lutz,28.15112,-82.46148,19344
4163049,FL,Lynn Haven,30.24548,-85.64826,20156
4163083,FL,Macclenny,30.28218,-82.12206,6487
4163129,FL,Madeira Beach,27.79808,-82.79732,4380
4163140,FL,Madison,30.46938,-83.41293,2880
4163220,FL,Maitland,28.62778,-81.36312,17463
4163232,FL,Malabar,28.00363,-80.56561,2936
4163248,FL,Malone,30.95769,-85.16215,2145
4163263,FL,Manalapan,26.56924,-80.04476,449
4163267,FL,Manasota Key,26.92534,-82.35204,1229
4163296,FL,Manatee Road,29.51302,-82.91429,2244
4163318,FL,Mango,27.97974,-82.30648,11313
4163322,FL,Mangonia Park,26.76034,-80.07365,1979
4163379,FL,Marathon,24.71375,-81.09035,8750
4163384,FL,Marco,25.9726,-81.72898,14879
4163388,FL,Marco Island,25.94121,-81.71842,17690
4163407,FL,Margate,26.24453,-80.20644,57234
4163428,FL,Marianna,30.77436,-85.22687,9100
4163446,FL,Marineland,29.66886,-81.2134,17
4163599,FL,Mary Esther,30.41015,-86.66509,4238
4163633,FL,Masaryktown,28.44167,-82.45704,1040
4163635,FL,Mascotte,28.57833,-81.88675,5473
4163723,FL,Mayo,30.053,-83.17486,1237
4163833,FL,McGregor,26.56091,-81.91453,7406
4163839,FL,McIntosh,29.44886,-82.22204,461
4163918,FL,Meadow Woods,28.38556,-81.36646,25558
4163952,FL,Medley,25.84065,-80.32644,851
4163954,FL,Medulla,27.9678,-81.97342,8892
4163971,FL,Melbourne,28.08363,-80.60811,84678
4163972,FL,Melbourne Beach,28.06835,-80.56033,3219
4163984,FL,Melbourne Village,28.08529,-80.66644,691
4163994,FL,Melrose Park,26.11342,-80.19338,7492
4164047,FL,Memphis,27.53587,-82.56121,7848
4164092,FL,Merritt Island,28.359,-80.69,34743
4164131,FL,Mexico Beach,29.94809,-85.41995,1167
4164138,FL,Miami,25.77427,-80.19366,441003
4164143,FL,Miami Beach,25.79065,-80.13005,92312
4164166,FL,Miami Gardens,25.97981,-80.20255,2706
4164167,FL,Miami Gardens,25.94204,-80.2456,113187
4164186,FL,Miami Lakes,25.90871,-80.30866,30972
4164211,FL,Miami Shores,25.86315,-80.19283,10831
4164223,FL,Miami Springs,25.82232,-80.2895,14490
4164250,FL,Micanopy,29.50469,-82.27982,630
4164253,FL,Micco,27.88058,-80.50033,9052
4164343,FL,Midway,30.49548,-84.45435,3276
4164346,FL,Midway,28.79027,-81.2309,1705
4164387,FL,Middleburg,30.06885,-81.86038,13008
4164547,FL,Milton,30.63241,-87.03969,9628
4164554,FL,Mims,28.66527,-80.84478,7058
4164575,FL,Minneola,28.57444,-81.74619,10735
4164601,FL,Miramar,25.98731,-80.23227,137132
4164602,FL,Miramar Beach,30.37437,-86.35856,6146
4164728,FL,Molino,30.72408,-87.31414,1277
4164803,FL,Monticello,30.54515,-83.8713,2411
4164806,FL,Montverde,28.60028,-81.67396,1607
4164836,FL,Moore Haven,26.83312,-81.09312,1794
4164950,FL,Morriston,29.28164,-82.43788,164
4165055,FL,Mount Carmel,30.98102,-87.11858,227
4165069,FL,Mount Dora,28.80249,-81.64452,13519
4165218,FL,Mount Plymouth,28.80805,-81.53313,4011
4165406,FL,Mulat,30.55131,-87.1233,259
4165419,FL,Mulberry,27.8953,-81.97342,3976
4165457,FL,Munson,30.85769,-86.87302,372
4165519,FL,Myrtle Grove,30.42103,-87.30747,15870
4165565,FL,Naples,26.14234,-81.79596,21512
4165574,FL,Naples Manor,26.0887,-81.7262,5562
4165576,FL,Naples Park,26.26175,-81.80925,5967
4165580,FL,Naranja,25.51816,-80.42283,13509
4165637,FL,Navarre,30.40159,-86.86357,31378
4165695,FL,Neptune Beach,30.31191,-81.39647,7269
4165869,FL,New Port Richey,28.24418,-82.71927,15842
4165913,FL,New Smyrna Beach,29.02582,-80.927,24298
4165961,FL,Newberry,29.64635,-82.6065,5564
4165995,FL,Niceville,30.51686,-86.48217,14714
4166046,FL,Nobleton,28.64555,-82.26398,282
4166047,FL,Nocatee,27.16033,-81.88231,4524
4166049,FL,Nokomis,27.11922,-82.44426,3167
4166054,FL,Noma,30.98213,-85.61854,205
4166066,FL,Norland,25.94898,-80.21227,23604
4166096,FL,North Andrews Gardens,26.19147,-80.14421,10056
4166105,FL,North Bay Village,25.84621,-80.15394,8302
4166109,FL,North Beach,27.78836,-80.41422,269
4166124,FL,North Brooksville,28.57305,-82.40815,3544
4166154,FL,North DeLand,29.04943,-81.29812,1450
4166195,FL,North Fort Myers,26.66729,-81.88009,39407
4166208,FL,North Key Largo,25.26734,-80.32339,1244
4166222,FL,North Lauderdale,26.2173,-80.22588,43703
4166232,FL,North Miami,25.89009,-80.18671,62435
4166233,FL,North Miami Beach,25.93315,-80.16255,43971
4166253,FL,North Palm Beach,26.81756,-80.08199,12015
4166274,FL,North Port,27.04422,-82.23593,62345
4166288,FL,North Redington Beach,27.81614,-82.82066,1463
4166293,FL,North River Shores,27.21755,-80.26977,3079
4166298,FL,North Sarasota,27.37393,-82.51843,6982
4166547,FL,Oak Hill,28.86443,-80.8545,1846
4166583,FL,Oak Ridge,28.47112,-81.42452,22685
4166628,FL,Oakland,28.555,-81.63313,2829
4166638,FL,Oakland Park,26.17231,-80.13199,44319
4166673,FL,Ocala,29.1872,-82.14009,58218
4166721,FL,Ocean Breeze Park,27.23588,-80.2206,355
4166723,FL,Ocean City,30.44103,-86.61356,5550
4166738,FL,Ocean Ridge,26.52702,-80.04837,1904
4166776,FL,Ocoee,28.56917,-81.54396,43608
4166787,FL,Odessa,28.1939,-82.59176,7267
4166805,FL,Ojus,25.94843,-80.1506,18036
4166809,FL,Okahumpka,28.74777,-81.89591,267
4166822,FL,Okeechobee,27.24393,-80.82978,5608
4166936,FL,Oldsmar,28.03418,-82.6651,14170
4166943,FL,Olga,26.71896,-81.7123,1952
4166979,FL,Olympia Heights,25.72677,-80.35533,13488
4166988,FL,Ona,27.48198,-81.91897,314
4167003,FL,Opa-locka,25.90232,-80.25033,16565
4167055,FL,Orange City,28.94888,-81.29867,11210
4167102,FL,Orange Park,30.16607,-81.70648,8702
4167127,FL,Orangetree,26.29286,-81.58842,4406
4167133,FL,Orchid,27.77281,-80.417,439
4167142,FL,Oriole Beach,30.37381,-87.09136,1420
4167147,FL,Orlando,28.53834,-81.37924,307573
4167176,FL,Orlovista,28.53834,-81.46035,6123
4167178,FL,Ormond Beach,29.28581,-81.05589,40970
4167190,FL,Ormond-by-the-Sea,29.34914,-81.06645,7406
4167245,FL,Osprey,27.19616,-82.49037,6100
4167267,FL,Otter Creek,29.32497,-82.77178,134
4167348,FL,Oviedo,28.67,-81.20812,38551
4167424,FL,Pace,30.59936,-87.16108,20039
4167465,FL,Page Park,26.57924,-81.86203,514
4167473,FL,Pahokee,26.82006,-80.66534,6071
4167478,FL,Paisley,28.9836,-81.54174,818
4167482,FL,Palatka,29.64858,-81.63758,10390
4167495,FL,Palm Aire,26.20619,-80.19171,1702
4167499,FL,Palm Bay,28.03446,-80.58866,119760
4167505,FL,Palm Beach,26.70562,-80.03643,8612
4167519,FL,Palm Beach Gardens,26.82339,-80.13865,52923
4167533,FL,Palm Beach Shores,26.77812,-80.0356,1208
4167536,FL,Palm City,27.16783,-80.26616,23120
4167538,FL,Palm Coast,29.58497,-81.20784,82893
4167545,FL,Palm Harbor,28.07807,-82.76371,57439
4167581,FL,Palm Shores,28.18446,-80.65283,900
4167583,FL,Palm Springs,26.6359,-80.09615,22341
4167594,FL,Palm Springs North,25.9351,-80.33383,5253
4167601,FL,Palm Valley,30.17746,-81.38758,20019
4167632,FL,Palmetto,27.52143,-82.57232,13249
4167634,FL,Palmetto Bay,25.62177,-80.32477,24439
4167647,FL,Palmetto Estates,25.62149,-80.362,13498
4167671,FL,Palmona Park,26.68646,-81.89648,1146
4167689,FL,Panacea,30.03743,-84.38768,816
4167694,FL,Panama City,30.15946,-85.65983,38286
4167695,FL,Panama City Beach,30.17659,-85.80549,12624
4167738,FL,Paradise Heights,28.62361,-81.54396,1215
4167797,FL,Parker,30.13104,-85.60326,4603
4167829,FL,Parkland,26.31008,-80.23727,30177
4167966,FL,Paxton,30.9818,-86.30855,749
4168062,FL,Pebble Creek,28.14835,-82.34565,7622
4168095,FL,Pelican Bay,26.2312,-81.80564,6346
4168138,FL,Pembroke Park,25.98787,-80.17477,6333
4168139,FL,Pembroke Pines,26.00315,-80.22394,166611
4168161,FL,Penney Farms,29.97969,-81.81037,815
4168228,FL,Pensacola,30.42131,-87.21691,53193
4168244,FL,Perry,30.11766,-83.58274,7055
4168371,FL,Pierson,29.23942,-81.46563,1772
4168418,FL,Pine Castle,28.47195,-81.36785,10805
4168459,FL,Pine Hills,28.55778,-81.4534,60076
4168475,FL,Pine Island,28.57527,-82.6526,64
4168493,FL,Pine Island Center,26.61369,-82.11815,1854
4168506,FL,Pine Island Ridge,26.09481,-80.27394,5218
4168525,FL,Pine Lakes,28.9411,-81.43007,862
4168556,FL,Pine Manor,26.57285,-81.87814,3428
4168563,FL,Pine Ridge,28.93831,-82.47343,9598
4168564,FL,Pine Ridge,26.23064,-81.79592,1918
4168590,FL,Pinecrest,25.66705,-80.30811,19452
4168609,FL,Pineland,26.66063,-82.15343,407
4168630,FL,Pinellas Park,27.8428,-82.69954,51617
4168659,FL,Pinewood,25.86898,-80.21699,16520
4168741,FL,Pittman,28.99998,-81.64174,180
4168761,FL,Placid Lakes,27.24144,-81.40702,3716
4168773,FL,Plant City,28.01888,-82.11469,37406
4168782,FL,Plantation,26.13421,-80.23184,92560
4168783,FL,Plantation,24.97624,-80.55228,1885
4168784,FL,Plantation,27.06811,-82.37287,4919
4168793,FL,Plantation Island,25.84399,-81.36591,163
4168804,FL,Plantation Mobile Home Park,26.70312,-80.13227,1260
4168930,FL,Poinciana,28.14029,-81.45841,53193
4168947,FL,Point Baker,30.69019,-87.05358,2991
4168985,FL,Polk City,28.18251,-81.82397,1907
4169012,FL,Pomona Park,29.50025,-81.59147,879
4169014,FL,Pompano Beach,26.23786,-80.12477,107762
4169018,FL,Pompano Beach Highlands,26.28286,-80.10699,7192
4169033,FL,Ponce Inlet,29.09637,-80.937,3157
4169035,FL,Ponce de Leon,30.72297,-85.93744,549
4169060,FL,Ponte Vedra Beach,30.23969,-81.38564,35400
4169130,FL,Port Charlotte,26.97617,-82.09064,54392
4169144,FL,Port LaBelle,26.75645,-81.40508,3530
4169156,FL,Port Orange,29.13832,-80.99561,59866
4169160,FL,Port Richey,28.27168,-82.71955,2761
4169166,FL,Port Saint Joe,29.81188,-85.30297,3445
4169170,FL,Port Saint John,28.47695,-80.78867,12267
4169171,FL,Port Saint Lucie,27.29393,-80.35033,164603
4169176,FL,Port Salerno,27.14422,-80.2006,10091
4169302,FL,Pretty Bayou,30.19659,-85.6966,3206
4169345,FL,Princeton,25.53844,-80.40894,39308
4169378,FL,Progress Village,27.9003,-82.36454,5392
4169452,FL,Punta Gorda,26.92978,-82.04537,18150
4169455,FL,Punta Gorda Isles,26.91756,-82.07842,18306
4169461,FL,Punta Rassa,26.48786,-82.01231,1750
4169510,FL,Quincy,30.58714,-84.58325,7830
4169576,FL,Raiford,30.06385,-82.2365,248
4169606,FL,Raleigh,29.44164,-82.46622,373
4169780,FL,Reddick,29.36664,-82.19732,518
4169810,FL,Redington Beach,27.80864,-82.81121,1471
4169811,FL,Redington Shores,27.82614,-82.82899,2205
4170000,FL,Richmond Heights,25.63149,-80.36894,8541
4170005,FL,Richmond West,25.6105,-80.42971,35884
4170014,FL,Ridge Manor,28.5075,-82.17036,4513
4170018,FL,Ridge Wood Heights,27.28727,-82.51315,4795
4170019,FL,Ridgecrest,27.8975,-82.80529,2558
4170062,FL,Rio,27.21949,-80.23921,965
4170092,FL,River Park,27.31421,-80.34727,5222
4170156,FL,Riverview,27.86614,-82.32648,71050
4170174,FL,Riviera Beach,26.77534,-80.0581,34005
4170301,FL,Rock Island,26.15509,-80.17699,3076
4170358,FL,Rockledge,28.35084,-80.72533,24926
4170446,FL,Roeville,30.67686,-86.99358,608
4170520,FL,Roseland,27.83586,-80.49311,1472
4170556,FL,Rotonda West,26.88368,-82.29009,8759
4170617,FL,Royal Palm Beach,26.7084,-80.2306,37633
4170625,FL,Royal Palm Estates,26.681,-80.133,3025
4170688,FL,Ruskin,27.72086,-82.43315,17208
4170797,FL,Safety Harbor,27.99085,-82.69316,17454
4170894,FL,Saint Augustine,29.89469,-81.31452,12975
4170896,FL,Saint Augustine Beach,29.85053,-81.26535,6176
4170908,FL,Saint Augustine Shores,29.8108,-81.31035,7359
4170965,FL,Saint Cloud,28.2489,-81.28118,35183
4171010,FL,Saint George,28.05641,-82.72788,2709
4171061,FL,Saint James City,26.49758,-82.07843,3784
4171250,FL,Saint Leo,28.33723,-82.25842,1340
4171257,FL,Saint Lucie,27.48948,-80.33977,590
4171315,FL,Saint Marks,30.16127,-84.20784,293
4171522,FL,Saint Pete Beach,27.72531,-82.74121,9346
4171563,FL,St. Petersburg,27.77086,-82.67927,257083
4171741,FL,Samoset,27.46948,-82.54149,3854
4171771,FL,San Antonio,28.33611,-82.27453,1308
4171782,FL,San Carlos Park,26.4673,-81.80147,16824
4172052,FL,Sanibel,26.44897,-82.02231,7236
4172086,FL,Sanford,28.80055,-81.27312,58111
4172094,FL,Santa Rosa Beach,30.39603,-86.22883,32459
4172131,FL,Sarasota,27.33643,-82.53065,55118
4172150,FL,Sarasota Springs,27.30894,-82.47954,14395
4172173,FL,Satellite Beach,28.17612,-80.59005,10633
4172206,FL,Sawgrass,30.19274,-81.37064,4880
4172248,FL,Schall Circle,26.71562,-80.11504,1117
4172294,FL,Scott Lake,25.94148,-80.23199,14425
4172330,FL,Sea Ranch Lakes,26.20258,-80.09393,670
4172366,FL,Seaside,30.32103,-86.14161,2000
4172372,FL,Sebastian,27.81641,-80.47061,24007
4172383,FL,Sebring,27.49559,-81.44091,10497
4172413,FL,Seffner,27.98363,-82.27565,7579
4172434,FL,Seminole,27.83975,-82.79121,18153
4172460,FL,Seminole Manor,26.58368,-80.10032,2621
4172552,FL,Seville,29.31692,-81.49257,614
4172557,FL,Sewall's Point,27.19949,-80.20227,2149
4172602,FL,Shady Hills,28.41,-82.54288,11523
4172620,FL,Shalimar,30.44575,-86.57912,796
4172658,FL,Sharpes,28.43223,-80.76005,3411
4172935,FL,Siesta Key,27.26785,-82.54526,6565
4172971,FL,Silver Lake,28.84193,-81.79841,1879
4173002,FL,Silver Springs,29.21664,-82.05759,10334
4173007,FL,Silver Springs Shores,29.10442,-82.02064,6539
4173124,FL,Sky Lake,28.45723,-81.39146,6153
4173293,FL,Sneads,30.70801,-84.92552,1776
4173330,FL,Solana,26.94701,-82.02592,742
4173350,FL,Sopchoppy,30.06025,-84.49061,462
4173355,FL,Sorrento,28.80777,-81.56368,861
4173376,FL,South Bay,26.66396,-80.71617,5101
4173380,FL,South Beach,27.59115,-80.34422,3501
4173392,FL,South Bradenton,27.4631,-82.58176,22178
4173394,FL,South Apopka,28.66194,-81.50952,5728
4173396,FL,South Brooksville,28.53582,-82.38403,4007
4173431,FL,South Daytona,29.16582,-81.0045,12584
4173460,FL,South Gate Ridge,27.28644,-82.49676,5688
4173467,FL,South Highpoint,27.91697,-82.71288,5195
4173495,FL,South Miami,25.7076,-80.29338,12242
4173497,FL,South Miami Heights,25.59761,-80.38061,36770
4173522,FL,South Palm Beach,26.58896,-80.03865,1424
4173524,FL,South Pasadena,27.75503,-82.7376,5081
4173528,FL,South Patrick Shores,28.20223,-80.6095,5875
4173558,FL,South Sarasota,27.28616,-82.53288,4950
4173593,FL,South Venice,27.05311,-82.42426,13949
4173600,FL,Southchase,28.39306,-81.3834,15921
4173634,FL,Southgate,27.3081,-82.50982,7173
4173717,FL,Southwest Ranches,26.0587,-80.33727,7852
4173838,FL,Spring Hill,28.47688,-82.52546,98621
4173841,FL,Spring Hill,30.76741,-86.94163,160
4173857,FL,Spring Lake,28.49361,-82.30287,458
4173892,FL,Springfield,30.15326,-85.61132,9442
4173944,FL,Stacey Street,26.6984,-80.12365,858
4173999,FL,Starke,29.94413,-82.10983,5397
4174059,FL,Steinhatchee,29.67106,-83.38764,1047
4174131,FL,Stock Island,24.56709,-81.73842,3919
4174201,FL,Stuart,27.19755,-80.25283,16462
4174252,FL,Sugarmill Woods,28.73221,-82.50621,8287
4174274,FL,Sumatra,30.02058,-84.98058,148
4174317,FL,Sun City Center,27.71809,-82.35176,19258
4174343,FL,Suncoast Estates,26.71174,-81.86897,4384
4174383,FL,Sunny Isles Beach,25.95065,-80.12282,22123
4174402,FL,Sunrise,26.13397,-80.1131,84439
4174425,FL,Sunset,25.70594,-80.35228,16389
4174503,FL,Sunshine Ranches,26.04592,-80.32894,1884
4174518,FL,Surfside,25.87843,-80.1256,6024
4174600,FL,Sweetwater,25.76343,-80.37311,20840
4174700,FL,Taft,28.42973,-81.36507,2205
4174715,FL,Tallahassee,30.43826,-84.28073,189907
4174738,FL,Tamarac,26.21286,-80.24977,64681
4174744,FL,Tamiami,25.75871,-80.39839,55271
4174757,FL,Tampa,27.94752,-82.45843,384959
4174791,FL,Tangelo Park,28.45584,-81.4459,2231
4174793,FL,Tangerine,28.76499,-81.63063,2865
4174855,FL,Tarpon Springs,28.14612,-82.75677,24605
4174861,FL,Tavares,28.80416,-81.72563,15430
4174870,FL,Tavernier,25.01152,-80.51506,2136
4174888,FL,Taylor Creek,27.21671,-80.7895,4348
4174921,FL,Tedder,26.28425,-80.12227,2299
4174969,FL,Temple Terrace,28.0353,-82.38926,25731
4175011,FL,Tequesta,26.959,-80.088,5629
4175022,FL,Terra Mar,26.21619,-80.09532,2909
4175091,FL,The Crossings,25.67066,-80.40117,22758
4175117,FL,The Hammocks,25.67149,-80.4445,51003
4175136,FL,The Meadows,27.36171,-82.46898,3994
4175179,FL,The Villages,28.93408,-81.95994,51442
4175269,FL,Thonotosassa,28.06141,-82.30231,13014
4175296,FL,Three Lakes,25.64205,-80.39839,15047
4175298,FL,Three Oaks,26.47008,-81.79397,3592
4175319,FL,Tice,26.67479,-81.81508,4470
4175331,FL,Tierra Verde,27.69197,-82.72343,3721
4175363,FL,Tiger Point,30.37853,-87.05552,3090
4175374,FL,Tildenville,28.542,-81.604,511
4175391,FL,Timber Pines,28.47028,-82.60316,5386
4175437,FL,Titusville,28.61222,-80.80755,45393
4175538,FL,Town 'n' Country,28.01057,-82.57732,78442
4175626,FL,Treasure Island,27.76919,-82.76899,6887
4175637,FL,Trenton,29.61329,-82.81762,2066
4175650,FL,Trilby,28.4625,-82.19481,419
4175993,FL,Twin Lakes,26.18092,-80.16005,2073
4176059,FL,Umatilla,28.92943,-81.66563,3702
4176109,FL,Union Park,28.56806,-81.28618,9765
4176217,FL,University Park,25.74649,-80.36755,26995
4176277,FL,Upper Grand Lagoon,30.16326,-85.74076,13963
4176299,FL,Utopia,27.29005,-82.36009,732
4176316,FL,Valparaiso,30.50853,-86.50273,5023
4176318,FL,Valrico,27.93789,-82.23644,35545
4176324,FL,Vamo,27.222,-82.49787,4727
4176380,FL,Venice,27.09978,-82.45426,22211
4176387,FL,Venice Gardens,27.07311,-82.4076,7104
4176407,FL,Vernon,30.62297,-85.71215,679
4176409,FL,Vero Beach,27.63864,-80.39727,16358
4176508,FL,Villages of Oriole,26.4623,-80.15282,4755
4176509,FL,Villano Beach,29.93858,-81.30202,2678
4176527,FL,Vineyards,26.22373,-81.72798,3375
4176550,FL,Virginia Gardens,25.81038,-80.30227,2487
4177268,FL,Wabasso,27.74836,-80.43616,609
4177270,FL,Wabasso Beach,27.76475,-80.39894,1853
4177287,FL,Wacissa,30.35854,-83.98711,386
4177308,FL,Wahneta,27.9528,-81.72702,5091
4177334,FL,Waldo,29.78969,-82.16732,1030
4177380,FL,Wallace,30.67741,-87.17997,1785
4177450,FL,Warm Mineral Springs,27.05978,-82.26009,5061
4177465,FL,Warrington,30.38409,-87.27497,14531
4177492,FL,Washington Park,26.13259,-80.18116,1672
4177542,FL,Watertown,30.19245,-82.61457,2829
4177569,FL,Wauchula,27.54726,-81.81147,4935
4177575,FL,Waukeenah,30.41131,-83.95294,272
4177577,FL,Wausau,30.63214,-85.58882,375
4177580,FL,Waverly,27.97891,-81.61397,767
4177609,FL,Webster,28.60999,-82.05508,995
4177617,FL,Wedgefield,28.48778,-81.07729,6705
4177633,FL,Weeki Wachee,28.51555,-82.57288,12
4177635,FL,Weeki Wachee Gardens,28.53361,-82.62954,1146
4177671,FL,Wekiwa Springs,28.69861,-81.42563,21998
4177674,FL,Welaka,29.47914,-81.67147,681
4177698,FL,Wellborn,30.23106,-82.81957,2724
4177703,FL,Wellington,26.65868,-80.24144,62560
4177727,FL,Wesley Chapel,28.23973,-82.32787,44092
4177759,FL,West Bradenton,27.50254,-82.61399,4192
4177779,FL,Westchase,28.05502,-82.60982,21747
4177787,FL,West DeLand,29.01582,-81.33312,3535
4177816,FL,West Gate,26.70257,-80.0981,7975
4177834,FL,West Hollywood,26.02065,-80.18394,60806
4177865,FL,West Little River,25.85704,-80.23699,34699
4177872,FL,West Melbourne,28.07168,-80.65339,20679
4177874,FL,West Miami,25.76343,-80.29616,5965
4177887,FL,West Palm Beach,26.71534,-80.05337,106779
4177897,FL,West Park,25.98454,-80.19894,15097
4177908,FL,West Pensacola,30.42659,-87.27969,21339
4177917,FL,West Perrine,25.60594,-80.36283,10602
4177930,FL,West Samoset,27.46948,-82.55676,5583
4177950,FL,West Vero Corridor,27.63775,-80.48576,7138
4177960,FL,West and East Lealman,27.81993,-82.68944,21924
4177965,FL,Westchester,25.75482,-80.32727,29862
4178003,FL,Weston,26.10037,-80.39977,69959
4178032,FL,Westview,25.88204,-80.24199,9650
4178040,FL,Westville,30.77463,-85.8516,275
4178053,FL,Westwood Lake,25.72927,-80.37283,11838
4178074,FL,Wewahitchka,30.1127,-85.20047,1995
4178111,FL,Whiskey Creek,26.57258,-81.89009,4655
4178137,FL,White City,27.37393,-80.33394,3719
4178180,FL,White Springs,30.32967,-82.75902,773
4178215,FL,Whitfield,27.41171,-82.56593,2882
4178216,FL,Whitfield,30.8819,-87.0524,295
4178292,FL,Wildwood,28.86542,-82.04058,6590
4178397,FL,Williamsburg,28.41445,-81.44285,7646
4178414,FL,Williston,29.38747,-82.44677,2746
4178419,FL,Williston Highlands,29.34052,-82.5415,2275
4178449,FL,Willow Oak,27.91614,-82.01786,6732
4178485,FL,Wilton Manors,26.16036,-80.13893,12385
4178488,FL,Wimauma,27.71253,-82.29898,6373
4178501,FL,Windermere,28.49556,-81.5348,3249
4178540,FL,Winston,28.03169,-82.01481,9050
4178548,FL,Winter Beach,27.7192,-80.42061,2067
4178550,FL,Winter Garden,28.56528,-81.58618,40356
4178552,FL,Winter Haven,28.02224,-81.73286,37689
4178560,FL,Winter Park,28.6,-81.33924,29943
4178573,FL,Winter Springs,28.69889,-81.30812,34789
4178585,FL,Wiscon,28.54083,-82.46204,706
4178694,FL,Woodlawn Beach,30.38825,-86.9908,1785
4178741,FL,Woodville,30.31409,-84.2474,2978
4178774,FL,Worthington Springs,29.92941,-82.42345,389
4178775,FL,Wright,30.45575,-86.63829,23127
4178817,FL,Yalaha,28.7386,-81.80869,1364
4178826,FL,Yankeetown,29.02997,-82.71594,501
4178857,FL,Yeehaw Junction,27.70031,-80.90423,240
4178909,FL,Youngstown,30.36436,-85.43826,4324
4178919,FL,Yulee,30.6319,-81.60649,11491
4178933,FL,Zellwood,28.73111,-81.60118,2817
4178941,FL,Zephyrhills,28.23362,-82.18119,14611
4178972,FL,Zolfo Springs,27.49337,-81.79592,1803
4178992,GA,Abbeville,31.99212,-83.30682,2815
4179074,GA,Acworth,34.06635,-84.67837,22131
4179094,GA,Adairsville,34.3687,-84.93411,4778
4179193,GA,Adel,31.13727,-83.42408,5316
4179213,GA,Adrian,32.53072,-82.5893,657
4179253,GA,Ailey,32.1874,-82.56569,552
4179313,GA,Alamo,32.14712,-82.77792,3330
4179317,GA,Alapaha,31.3852,-83.22293,656
4179320,GA,Albany,31.57851,-84.15574,74843
4179363,GA,Aldora,33.05207,-84.17575,103
4179499,GA,Allenhurst,31.7841,-81.60761,665
4179510,GA,Allentown,32.59321,-83.22571,162
4179557,GA,Alma,31.53937,-82.46236,3536
4179574,GA,Alpharetta,34.07538,-84.29409,63693
4179593,GA,Alston,32.08074,-82.47763,158
4179624,GA,Alto,34.46732,-83.57378,1167
4179650,GA,Ambrose,31.5938,-83.01431,380
4179667,GA,Americus,32.07239,-84.23269,16028
4179781,GA,Andersonville,32.19599,-84.13991,236
4180106,GA,Arabi,31.83157,-83.73795,563
4180114,GA,Aragon,34.04565,-85.05606,1243
4180134,GA,Arcade,34.07789,-83.56155,1799
4180170,GA,Argyle,31.0741,-82.64847,215
4180183,GA,Arlington,31.4399,-84.72492,1406
4180253,GA,Arnoldsville,33.90512,-83.21682,354
4180316,GA,Ashburn,31.70601,-83.65322,3820
4180386,GA,Athens,33.96095,-83.37794,127315
4180439,GA,Atlanta,33.749,-84.38798,463878
4180493,GA,Attapulgus,30.74932,-84.48568,435
4180512,GA,Auburn,34.01372,-83.82768,7524
4180531,GA,Augusta,33.47097,-81.97484,43459
4180564,GA,Austell,33.81261,-84.63438,7107
4180593,GA,Avalon,34.50205,-83.19516,205
4180603,GA,Avera,33.19404,-82.52707,233
4180638,GA,Avondale Estates,33.77149,-84.26714,3139
4180723,GA,Baconton,31.37962,-84.16102,871
4180775,GA,Bainbridge,30.9038,-84.57547,12507
4180868,GA,Baldwin,34.49177,-83.53739,3286
4180913,GA,Ball Ground,34.33815,-84.37659,1720
